[
  {
    "code": "BBJW035",
    "name": "ARCAN/GREENGARDEN BV",
    "longitude": 5.6517,
    "latitude": 50.8473,
    "street": "Veldwezeltstraat 80",
    "city": "6215JC MAASTRICHT",
    "url": "arcangreengarden-bv",
    "logo": "",
    "tel": "",
    "tenue": ""
  },
  {
    "code": "BBBN11B",
    "name": "AMICITIA VMC",
    "longitude": 6.59838,
    "latitude": 53.196,
    "street": "Kooiweg 1",
    "city": "9722BZ GRONINGEN",
    "url": "amicitia-vmc",
    "logo": "",
    "tel": "",
    "tenue": "t_74.png"
  },
  {
    "code": "BBJD20T",
    "name": "GSBW",
    "longitude": 5.04919,
    "latitude": 51.5123,
    "street": "Wim Rotherlaan 8",
    "city": "5051JS GOIRLE",
    "url": "gsbw",
    "logo": "",
    "tel": "",
    "tenue": "t_83.png"
  },
  {
    "code": "BBJB91V",
    "name": "ZEELAND SPORT",
    "longitude": 3.58234,
    "latitude": 51.4556,
    "street": "Baskensburgplein 2 A",
    "city": "4383NE VLISSINGEN",
    "url": "zeeland-sport",
    "logo": "",
    "tel": "",
    "tenue": "t_301.png"
  },
  {
    "code": "BBJV25C",
    "name": "SVC 2000",
    "longitude": 6.01862,
    "latitude": 51.1952,
    "street": "Jagerstraat 1",
    "city": "6042KA ROERMOND",
    "url": "svc-2000",
    "logo": "",
    "tel": "",
    "tenue": "t_233.png"
  },
  {
    "code": "BBFC37U",
    "name": "OLYMPIA",
    "longitude": 4.71771,
    "latitude": 52.025,
    "street": "Bodegraafsestraatweg 52",
    "city": "2805GR GOUDA",
    "url": "olympia",
    "logo": "",
    "tel": "",
    "tenue": "t_761.png"
  },
  {
    "code": "BBJF64B",
    "name": "WDS19",
    "longitude": 4.72935,
    "latitude": 51.6162,
    "street": "Ganzerik 80",
    "city": "4822RK BREDA",
    "url": "wds19",
    "logo": "",
    "tel": "",
    "tenue": "t_23.png"
  },
  {
    "code": "BBFX16Q",
    "name": "WESTFRIEZEN",
    "longitude": 5.07015,
    "latitude": 52.6636,
    "street": "Wilhelminastraat 11",
    "city": "1689EJ ZWAAG",
    "url": "westfriezen",
    "logo": "",
    "tel": "",
    "tenue": "t_24.png"
  },
  {
    "code": "BBKV00E",
    "name": "BRIGHT SIDE",
    "longitude": 6.05605,
    "latitude": 51.9362,
    "street": "Heerenmaten 8",
    "city": "6904GZ ZEVENAAR",
    "url": "bright-side",
    "logo": "",
    "tel": "",
    "tenue": ""
  },
  {
    "code": "MDZL40C",
    "name": "FUTSAL HEERENVEEN",
    "longitude": 5.93779,
    "latitude": 52.9575,
    "street": "Abe Lenstra boulevard 23Q",
    "city": "8448JA HEERENVEEN",
    "url": "futsal-heerenveen",
    "logo": "",
    "tel": "",
    "tenue": ""
  },
  {
    "code": "LWSL80Z",
    "name": "LA RONDINE FV",
    "longitude": 5.43319,
    "latitude": 52.1929,
    "street": "Lovink 10",
    "city": "3825MP AMERSFOORT",
    "url": "la-rondine-fv",
    "logo": "",
    "tel": "",
    "tenue": ""
  },
  {
    "code": "FRKV20E",
    "name": "SVB BESIKTAS",
    "longitude": 4.53004,
    "latitude": 51.8883,
    "street": "Buitendijk 110",
    "city": "3078XC ROTTERDAM",
    "url": "svb-besiktas",
    "logo": "",
    "tel": "",
    "tenue": "t_136.png"
  },
  {
    "code": "BBCD226",
    "name": "PALM",
    "longitude": 5.14337,
    "latitude": 52.2135,
    "street": "Franciscusweg 6A",
    "city": "1216SK HILVERSUM",
    "url": "palm",
    "logo": "",
    "tel": "",
    "tenue": ""
  },
  {
    "code": "BBHV13R",
    "name": "CFE/VDL GROEP",
    "longitude": 5.50269,
    "latitude": 51.4429,
    "street": "Meerkollaan 6",
    "city": "5613BW EINDHOVEN",
    "url": "cfevdl-groep",
    "logo": "",
    "tel": "",
    "tenue": ""
  },
  {
    "code": "BBJH094",
    "name": "OISTERWIJK",
    "longitude": 5.17698,
    "latitude": 51.5696,
    "street": "Sportlaan 24",
    "city": "5062JK OISTERWIJK",
    "url": "oisterwijk",
    "logo": "",
    "tel": "",
    "tenue": "t_21.png"
  },
  {
    "code": "BBJC11C",
    "name": "TONGELRE",
    "longitude": 5.52407,
    "latitude": 51.4346,
    "street": "Partituurlaan 100",
    "city": "5642ST EINDHOVEN",
    "url": "tongelre",
    "logo": "",
    "tel": "",
    "tenue": "t_21.png"
  },
  {
    "code": "BBBC545",
    "name": "ORANJE NASSAU",
    "longitude": 6.59838,
    "latitude": 53.196,
    "street": "Kooiweg 1",
    "city": "9722BZ GRONINGEN",
    "url": "oranje-nassau",
    "logo": "",
    "tel": "",
    "tenue": "t_25.png"
  },
  {
    "code": "BBHT54U",
    "name": "RIGHTOH",
    "longitude": 4.85183,
    "latitude": 51.7017,
    "street": "Stadsweg 1",
    "city": "4931HV GEERTRUIDENBERG",
    "url": "rightoh",
    "logo": "",
    "tel": "",
    "tenue": ""
  },
  {
    "code": "BBCB79I",
    "name": "ROOIE LIJN DE",
    "longitude": 5.00217,
    "latitude": 52.0962,
    "street": "Teunisbloemlaan 48",
    "city": "3452CB VLEUTEN",
    "url": "rooie-lijn-de",
    "logo": "",
    "tel": "",
    "tenue": ""
  },
  {
    "code": "BBCC64F",
    "name": "PATRIA",
    "longitude": 5.2414,
    "latitude": 52.0779,
    "street": "Blikkenburgerlaan 1",
    "city": "3703CV ZEIST",
    "url": "patria",
    "logo": "",
    "tel": "",
    "tenue": "t_23.png"
  },
  {
    "code": "BBJB75T",
    "name": "HULSTERLOO",
    "longitude": 4.16412,
    "latitude": 51.295,
    "street": "Cuwaertstraat 1",
    "city": "4568BJ NIEUW NAMEN",
    "url": "hulsterloo",
    "logo": "",
    "tel": "",
    "tenue": "t_683.png"
  },
  {
    "code": "BBKR41Z",
    "name": "DE PAASBERG",
    "longitude": 5.945,
    "latitude": 51.997,
    "street": "Vondellaan 117- 119",
    "city": "6824NC ARNHEM",
    "url": "de-paasberg",
    "logo": "",
    "tel": "",
    "tenue": "t_48.png"
  },
  {
    "code": "BBHW91K",
    "name": "VEREST SPORT",
    "longitude": 5.5659,
    "latitude": 51.3826,
    "street": "Ten Borchwardplein 32",
    "city": "5591ML HEEZE",
    "url": "verest-sport",
    "logo": "",
    "tel": "",
    "tenue": ""
  },
  {
    "code": "BBFC87B",
    "name": "ZUIDERPARK, SC",
    "longitude": 4.49799,
    "latitude": 51.8802,
    "street": "Oldegaarde 21",
    "city": "3084AA ROTTERDAM",
    "url": "zuiderpark-sc",
    "logo": "",
    "tel": "",
    "tenue": ""
  },
  {
    "code": "BBCZ28K",
    "name": "VOORLAND  SC",
    "longitude": 4.95618,
    "latitude": 52.3451,
    "street": "Voorlandpad 6",
    "city": "1098TZ AMSTERDAM",
    "url": "voorland-sc",
    "logo": "",
    "tel": "",
    "tenue": "t_22.png"
  },
  {
    "code": "BBBC637",
    "name": "ORING",
    "longitude": 6.84564,
    "latitude": 52.8463,
    "street": "Hammeersweg 17",
    "city": "7873BR ODOORN",
    "url": "oring",
    "logo": "",
    "tel": "",
    "tenue": ""
  },
  {
    "code": "BBBF68R",
    "name": "DE MONNIK",
    "longitude": 6.1614,
    "latitude": 53.4818,
    "street": "Duinpad 3",
    "city": "9166NL SCHIERMONNIKOOG",
    "url": "de-monnik",
    "logo": "",
    "tel": "",
    "tenue": "t_100.png"
  },
  {
    "code": "BBCZ024",
    "name": "OSV",
    "longitude": 4.87967,
    "latitude": 52.4219,
    "street": "Sportpark Oostzanerwerf 2",
    "city": "1035EW AMSTERDAM",
    "url": "osv",
    "logo": "",
    "tel": "",
    "tenue": "t_223.png"
  },
  {
    "code": "BBCB444",
    "name": "MADJOE ZVV",
    "longitude": 5.25912,
    "latitude": 52.2541,
    "street": "Hasselaarlaan 1C",
    "city": "3755AV EEMNES",
    "url": "madjoe-zvv",
    "logo": "",
    "tel": "",
    "tenue": ""
  },
  {
    "code": "NKXQ80N",
    "name": "VVV-VENLO/HELMOND SPORT",
    "longitude": 6.18509,
    "latitude": 51.3527,
    "street": "Merelweg 5",
    "city": "5915BT VENLO",
    "url": "vvvvenlohelmond-sport",
    "logo": "",
    "tel": "",
    "tenue": ""
  },
  {
    "code": "BBKT76P",
    "name": "FC MARKTZICHT",
    "longitude": 5.79355,
    "latitude": 52.3861,
    "street": "Oosteinderweg 19",
    "city": "8072ZN NUNSPEET",
    "url": "fc-marktzicht",
    "logo": "",
    "tel": "",
    "tenue": ""
  },
  {
    "code": "BBJF85I",
    "name": "INTERNOS",
    "longitude": 4.65561,
    "latitude": 51.5705,
    "street": "Olympiade 7",
    "city": "4873DA ETTEN-LEUR",
    "url": "internos",
    "logo": "",
    "tel": "",
    "tenue": "t_48.png"
  },
  {
    "code": "MHXS14S",
    "name": "ODS",
    "longitude": 4.6985,
    "latitude": 51.8073,
    "street": "Groenezoom 50",
    "city": "3312AM DORDRECHT",
    "url": "ods",
    "logo": "",
    "tel": "",
    "tenue": ""
  },
  {
    "code": "BBKR617",
    "name": "PH",
    "longitude": 6.67388,
    "latitude": 52.3833,
    "street": "Veenelandenweg 34",
    "city": "7608HB ALMELO",
    "url": "ph",
    "logo": "",
    "tel": "",
    "tenue": ""
  },
  {
    "code": "BBFW89B",
    "name": "PURMERSTEIJN",
    "longitude": 4.97217,
    "latitude": 52.5141,
    "street": "Van IJsendijkstraat 140",
    "city": "1442CS PURMEREND",
    "url": "purmersteijn",
    "logo": "",
    "tel": "",
    "tenue": "t_127.png"
  },
  {
    "code": "BBJB02Z",
    "name": "NIEUW BORGVLIET",
    "longitude": 4.29262,
    "latitude": 51.4802,
    "street": "Langs de Lijn 3",
    "city": "4616AZ BERGEN OP ZOOM",
    "url": "nieuw-borgvliet",
    "logo": "",
    "tel": "",
    "tenue": "t_245.png"
  },
  {
    "code": "BBHV719",
    "name": "FC CROMWIEL",
    "longitude": 4.32395,
    "latitude": 51.5832,
    "street": "Krommeweg 1",
    "city": "4651RN STEENBERGEN NB",
    "url": "fc-cromwiel",
    "logo": "",
    "tel": "",
    "tenue": ""
  },
  {
    "code": "BBFW31M",
    "name": "HUGO BOYS",
    "longitude": 4.85052,
    "latitude": 52.7063,
    "street": "Middenweg 539 A",
    "city": "1704BE HEERHUGOWAARD",
    "url": "hugo-boys",
    "logo": "",
    "tel": "",
    "tenue": "t_25.png"
  },
  {
    "code": "BBKR08Q",
    "name": "WAGENINGEN",
    "longitude": 5.69522,
    "latitude": 51.9792,
    "street": "Zoomweg 8",
    "city": "6704PE WAGENINGEN",
    "url": "wageningen",
    "logo": "",
    "tel": "",
    "tenue": "t_82.png"
  },
  {
    "code": "BBJH77R",
    "name": "OIRSCHOT VOORUIT",
    "longitude": 5.30748,
    "latitude": 51.4986,
    "street": "Drieterskuil 6 A",
    "city": "5688GC OIRSCHOT",
    "url": "oirschot-vooruit",
    "logo": "",
    "tel": "",
    "tenue": "t_82.png"
  },
  {
    "code": "BBJS442",
    "name": "SCHINNEN",
    "longitude": 5.90536,
    "latitude": 50.9479,
    "street": "Oirsbekerweg 44",
    "city": "6438HC OIRSBEEK",
    "url": "schinnen",
    "logo": "",
    "tel": "",
    "tenue": "t_183.png"
  },
  {
    "code": "BBFZ58G",
    "name": "BERGEN",
    "longitude": 4.71285,
    "latitude": 52.6769,
    "street": "Oudtburghweg 1",
    "city": "1862PX BERGEN NH",
    "url": "bergen",
    "logo": "",
    "tel": "",
    "tenue": "t_243.png"
  },
  {
    "code": "BBJB054",
    "name": "ORANJE WIT",
    "longitude": 4.70006,
    "latitude": 51.8099,
    "street": "Nieuwe Noordpolderweg 1",
    "city": "3312AD DORDRECHT",
    "url": "oranje-wit",
    "logo": "",
    "tel": "",
    "tenue": "t_25.png"
  },
  {
    "code": "BBJC63T",
    "name": "FC UDEN",
    "longitude": 5.62569,
    "latitude": 51.673,
    "street": "Artillerieweg 1",
    "city": "5403PB UDEN",
    "url": "fc-uden",
    "logo": "",
    "tel": "",
    "tenue": "t_48.png"
  },
  {
    "code": "BBHT09G",
    "name": "ALBLASSERDAM",
    "longitude": 4.6692,
    "latitude": 51.8609,
    "street": "Vinkenpolderweg 1",
    "city": "2952AV ALBLASSERDAM",
    "url": "alblasserdam",
    "logo": "",
    "tel": "",
    "tenue": "t_1382.png"
  },
  {
    "code": "BBGY52C",
    "name": "SEV",
    "longitude": 4.40581,
    "latitude": 52.1042,
    "street": "Sportparkweg 4",
    "city": "2263SX LEIDSCHENDAM",
    "url": "sev",
    "logo": "",
    "tel": "",
    "tenue": "t_22.png"
  },
  {
    "code": "NKTJ02Q",
    "name": "BOCA/BVL TECHNIEK",
    "longitude": 5.40028,
    "latitude": 51.3993,
    "street": "Heerseweg 49",
    "city": "5504KP VELDHOVEN",
    "url": "bocabvl-techniek",
    "logo": "",
    "tel": "",
    "tenue": ""
  },
  {
    "code": "BBBZ18A",
    "name": "BATAVIA 90",
    "longitude": 5.49425,
    "latitude": 52.4986,
    "street": "Getijdenlaan 0",
    "city": "8226DG LELYSTAD",
    "url": "batavia-90",
    "logo": "",
    "tel": "",
    "tenue": "t_183.png"
  },
  {
    "code": "BBBZ38G",
    "name": "AMSVORDE",
    "longitude": 5.37467,
    "latitude": 52.1342,
    "street": "Leusderweg 310",
    "city": "3817KJ AMERSFOORT",
    "url": "amsvorde",
    "logo": "",
    "tel": "",
    "tenue": "t_96.png"
  },
  {
    "code": "BBKT36D",
    "name": "COLUMBIA",
    "longitude": 5.95443,
    "latitude": 52.189,
    "street": "Winkewijertlaan 80",
    "city": "7334CM APELDOORN",
    "url": "columbia",
    "logo": "",
    "tel": "",
    "tenue": "t_184.png"
  },
  {
    "code": "BBCZ27J",
    "name": "VOLEWIJCKERS DE  AVV",
    "longitude": 4.91811,
    "latitude": 52.4022,
    "street": "Baron de Coubertinlaan 1",
    "city": "1034ZK AMSTERDAM",
    "url": "volewijckers-de-avv",
    "logo": "",
    "tel": "",
    "tenue": ""
  },
  {
    "code": "BBFX39Z",
    "name": "CULINAIRS DE ZVV/DE VESTIBULE",
    "longitude": 4.71255,
    "latitude": 52.6335,
    "street": "Terborchlaan 301",
    "city": "1816MH ALKMAAR",
    "url": "culinairs-de-zvvde-vestibule",
    "logo": "",
    "tel": "",
    "tenue": ""
  },
  {
    "code": "MJFH51E",
    "name": "ZVV WAUBACH",
    "longitude": 6.0579,
    "latitude": 50.9171,
    "street": "Sportlaan 1",
    "city": "6374CM LANDGRAAF",
    "url": "zvv-waubach",
    "logo": "",
    "tel": "",
    "tenue": ""
  },
  {
    "code": "BBJF08R",
    "name": "GEMERT",
    "longitude": 5.69623,
    "latitude": 51.5625,
    "street": "Sportlaan 9",
    "city": "5421SK GEMERT",
    "url": "gemert",
    "logo": "",
    "tel": "",
    "tenue": "t_136.png"
  },
  {
    "code": "BBGY71H",
    "name": "DVC",
    "longitude": 4.37281,
    "latitude": 52.031,
    "street": "Brasserskade 238",
    "city": "2616LA DELFT",
    "url": "dvc",
    "logo": "",
    "tel": "",
    "tenue": "t_123.png"
  },
  {
    "code": "BBBD48B",
    "name": "GRUNO",
    "longitude": 6.53708,
    "latitude": 53.2219,
    "street": "Zilverlaan 4",
    "city": "9743RK GRONINGEN",
    "url": "gruno",
    "logo": "",
    "tel": "",
    "tenue": "t_156.png"
  },
  {
    "code": "BBHV454",
    "name": "RKTVC",
    "longitude": 5.40271,
    "latitude": 51.8776,
    "street": "Wadenoijenlaan 300",
    "city": "4006AW TIEL",
    "url": "rktvc",
    "logo": "",
    "tel": "",
    "tenue": "t_23.png"
  },
  {
    "code": "BBJS31U",
    "name": "GERENDAL SV64",
    "longitude": 5.83745,
    "latitude": 50.8167,
    "street": "Ingberweg 1",
    "city": "6269NG MARGRATEN",
    "url": "gerendal-sv64",
    "logo": "",
    "tel": "",
    "tenue": ""
  },
  {
    "code": "BBFZ30C",
    "name": "URSEM",
    "longitude": 4.89102,
    "latitude": 52.602,
    "street": "Oostmijzerdijk 4",
    "city": "1636WC SCHERMERHORN",
    "url": "ursem",
    "logo": "",
    "tel": "",
    "tenue": ""
  },
  {
    "code": "BBKX78D",
    "name": "SP LOCHEM",
    "longitude": 6.39173,
    "latitude": 52.1627,
    "street": "De Elzelaan 3",
    "city": "7241RX LOCHEM",
    "url": "sp-lochem",
    "logo": "",
    "tel": "",
    "tenue": "t_682.png"
  },
  {
    "code": "BBCY91T",
    "name": "ONZE GEZELLEN",
    "longitude": 4.64952,
    "latitude": 52.4237,
    "street": "Van der Aartweg 16",
    "city": "2026ZL HAARLEM",
    "url": "onze-gezellen",
    "logo": "",
    "tel": "",
    "tenue": "t_116.png"
  },
  {
    "code": "BBFZ82J",
    "name": "HSV",
    "longitude": 4.67819,
    "latitude": 52.6192,
    "street": "Het Maalwater 4",
    "city": "1852RH HEILOO",
    "url": "hsv",
    "logo": "",
    "tel": "",
    "tenue": "t_1202.png"
  },
  {
    "code": "FJGP04M",
    "name": "FC GROOTEGAST",
    "longitude": 6.26137,
    "latitude": 53.2051,
    "street": "Provincialeweg 139",
    "city": "9863PE DOEZUM",
    "url": "fc-grootegast",
    "logo": "",
    "tel": "",
    "tenue": "t_22.png"
  },
  {
    "code": "FSGB05I",
    "name": "DE HELD",
    "longitude": 6.51082,
    "latitude": 53.209,
    "street": "De Verbetering 50",
    "city": "9744DZ GRONINGEN",
    "url": "de-held",
    "logo": "",
    "tel": "",
    "tenue": ""
  },
  {
    "code": "BBDX61M",
    "name": "SVDPW",
    "longitude": 4.37125,
    "latitude": 51.9226,
    "street": "Olympiaweg 60",
    "city": "3118JD SCHIEDAM",
    "url": "svdpw",
    "logo": "",
    "tel": "",
    "tenue": "t_662.png"
  },
  {
    "code": "BBJH73N",
    "name": "NEVELO",
    "longitude": 5.1766,
    "latitude": 51.5699,
    "street": "Sportlaan 20",
    "city": "5062JK OISTERWIJK",
    "url": "nevelo",
    "logo": "",
    "tel": "",
    "tenue": "t_261.png"
  },
  {
    "code": "FSGG956",
    "name": "REAL CAMARADAS",
    "longitude": 6.39273,
    "latitude": 53.2492,
    "street": "Sportlaan 1",
    "city": "9801KZ ZUIDHORN",
    "url": "real-camaradas",
    "logo": "",
    "tel": "",
    "tenue": ""
  },
  {
    "code": "BBKY63A",
    "name": "UDI",
    "longitude": 6.86506,
    "latitude": 52.1901,
    "street": "Geessinkweg 246",
    "city": "7544RB ENSCHEDE",
    "url": "udi",
    "logo": "",
    "tel": "",
    "tenue": "t_21.png"
  },
  {
    "code": "BBJH94U",
    "name": "ROOD WIT62",
    "longitude": 5.69112,
    "latitude": 51.4779,
    "street": "Rijpelbergseweg 1",
    "city": "5703KN HELMOND",
    "url": "rood-wit62",
    "logo": "",
    "tel": "",
    "tenue": ""
  },
  {
    "code": "BBKY56A",
    "name": "ZAC",
    "longitude": 6.09482,
    "latitude": 52.4873,
    "street": "Landsheerlaan 42",
    "city": "8016KH ZWOLLE",
    "url": "zac",
    "logo": "",
    "tel": "",
    "tenue": "t_43.png"
  },
  {
    "code": "BBCC94O",
    "name": "ANNOUR",
    "longitude": 5.40266,
    "latitude": 52.1791,
    "street": "Trompetstraat 3",
    "city": "3822CK AMERSFOORT",
    "url": "annour",
    "logo": "",
    "tel": "",
    "tenue": ""
  },
  {
    "code": "BBJB51J",
    "name": "NOAD",
    "longitude": 5.09769,
    "latitude": 51.571,
    "street": "Melis Stokestraat 42",
    "city": "5013BM TILBURG",
    "url": "noad",
    "logo": "",
    "tel": "",
    "tenue": "t_91.png"
  },
  {
    "code": "BBBN09C",
    "name": "ALCIDES",
    "longitude": 6.20296,
    "latitude": 52.6912,
    "street": "Ambachtsweg 11",
    "city": "7943AE MEPPEL",
    "url": "alcides",
    "logo": "",
    "tel": "",
    "tenue": "t_244.png"
  },
  {
    "code": "BBGY55F",
    "name": "ADIO",
    "longitude": 4.48371,
    "latitude": 52.0382,
    "street": "Prismalaan 40",
    "city": "2718CX ZOETERMEER",
    "url": "adio",
    "logo": "",
    "tel": "",
    "tenue": ""
  },
  {
    "code": "BBFX22P",
    "name": "WIERINGERMEER",
    "longitude": 4.96879,
    "latitude": 52.8458,
    "street": "Emmahoeve 2",
    "city": "1774BL SLOOTDORP",
    "url": "wieringermeer",
    "logo": "",
    "tel": "",
    "tenue": "t_43.png"
  },
  {
    "code": "FKHD56Z",
    "name": "REAL ZOETERMEER",
    "longitude": 4.46197,
    "latitude": 52.0686,
    "street": "Buytenparklaan 7 A",
    "city": "2717AX ZOETERMEER",
    "url": "real-zoetermeer",
    "logo": "",
    "tel": "",
    "tenue": ""
  },
  {
    "code": "BBKT38F",
    "name": "FC JEUGD",
    "longitude": 5.66464,
    "latitude": 52.0234,
    "street": "Sportlaan 43",
    "city": "6717LA EDE GLD",
    "url": "fc-jeugd",
    "logo": "",
    "tel": "",
    "tenue": "t_683.png"
  },
  {
    "code": "BBKT01T",
    "name": "ORION",
    "longitude": 5.88079,
    "latitude": 51.8197,
    "street": "Nijmeegsebaan 143",
    "city": "6525DX NIJMEGEN",
    "url": "orion",
    "logo": "",
    "tel": "",
    "tenue": "t_724.png"
  },
  {
    "code": "BBJG74J",
    "name": "SPORTCLUB ORANJE ZWART HELMOND",
    "longitude": 5.6762,
    "latitude": 51.4845,
    "street": "Goorkesdijk 1",
    "city": "5703HX HELMOND",
    "url": "sportclub-oranje-zwart-helmond",
    "logo": "",
    "tel": "",
    "tenue": "t_245.png"
  },
  {
    "code": "BBJS42Y",
    "name": "GRIENDTSVEEN",
    "longitude": 5.89725,
    "latitude": 51.4431,
    "street": "Lavendellaan 31",
    "city": "5766PP GRIENDTSVEEN",
    "url": "griendtsveen",
    "logo": "",
    "tel": "",
    "tenue": "t_43.png"
  },
  {
    "code": "BBBJ17V",
    "name": "ZVV BORGER",
    "longitude": 6.7961,
    "latitude": 52.9225,
    "street": "Molenstraat 5",
    "city": "9531CH BORGER",
    "url": "zvv-borger",
    "logo": "",
    "tel": "",
    "tenue": ""
  },
  {
    "code": "BBCC88P",
    "name": "ZWART WIT 63",
    "longitude": 5.62831,
    "latitude": 52.3424,
    "street": "Parkweg 0",
    "city": "3842AD HARDERWIJK",
    "url": "zwart-wit-63",
    "logo": "",
    "tel": "",
    "tenue": "t_136.png"
  },
  {
    "code": "BBBZ59N",
    "name": "SDC PUTTEN",
    "longitude": 5.59324,
    "latitude": 52.2535,
    "street": "Roosendaalseweg 111",
    "city": "3882MN PUTTEN",
    "url": "sdc-putten",
    "logo": "",
    "tel": "",
    "tenue": "t_23.png"
  },
  {
    "code": "BBKR24W",
    "name": "SC DOESBURG",
    "longitude": 6.14542,
    "latitude": 52.0107,
    "street": "Oranjesingel 22",
    "city": "6981GZ DOESBURG",
    "url": "sc-doesburg",
    "logo": "",
    "tel": "",
    "tenue": "t_147.png"
  },
  {
    "code": "BBCY61K",
    "name": "HBOK",
    "longitude": 4.95912,
    "latitude": 52.41,
    "street": "Termietergouw 8",
    "city": "1027AD AMSTERDAM",
    "url": "hbok",
    "logo": "",
    "tel": "",
    "tenue": "t_42.png"
  },
  {
    "code": "BBCY93V",
    "name": "SPORTING AMSTERDAM",
    "longitude": 4.95354,
    "latitude": 52.3482,
    "street": "Voorlandpad 17",
    "city": "1098TZ AMSTERDAM",
    "url": "sporting-amsterdam",
    "logo": "",
    "tel": "",
    "tenue": ""
  },
  {
    "code": "BBKS379",
    "name": "ONA 53",
    "longitude": 5.64791,
    "latitude": 51.9858,
    "street": "Peppelsteeg 2",
    "city": "6708NZ WAGENINGEN",
    "url": "ona-53",
    "logo": "",
    "tel": "",
    "tenue": "t_661.png"
  },
  {
    "code": "BBKX90L",
    "name": "ABC HEKWERK",
    "longitude": 6.05288,
    "latitude": 52.3914,
    "street": "Postweg 37A",
    "city": "8181VK HEERDE",
    "url": "abc-hekwerk",
    "logo": "",
    "tel": "",
    "tenue": ""
  },
  {
    "code": "BBJD15L",
    "name": "EMPLINA",
    "longitude": 5.33487,
    "latitude": 51.7294,
    "street": "Riek 1",
    "city": "5236PS 'S-HERTOGENBOSCH",
    "url": "emplina",
    "logo": "",
    "tel": "",
    "tenue": "t_48.png"
  },
  {
    "code": "BBKS60L",
    "name": "ZSW",
    "longitude": 5.75213,
    "latitude": 51.8137,
    "street": "Nieuweweg 203",
    "city": "6603BM WIJCHEN",
    "url": "zsw",
    "logo": "",
    "tel": "",
    "tenue": ""
  },
  {
    "code": "BBCZ08A",
    "name": "TOS-ACTIEF",
    "longitude": 4.94229,
    "latitude": 52.3522,
    "street": "Radioweg 63",
    "city": "1098NG AMSTERDAM",
    "url": "tosactief",
    "logo": "",
    "tel": "",
    "tenue": "t_1264.png"
  },
  {
    "code": "BBBB22N",
    "name": "AMELANDIA",
    "longitude": 5.62064,
    "latitude": 53.4485,
    "street": "Oranjeweg 58",
    "city": "9161CC HOLLUM",
    "url": "amelandia",
    "logo": "",
    "tel": "",
    "tenue": "t_905.png"
  },
  {
    "code": "BBFW14J",
    "name": "BEVERWIJK",
    "longitude": 4.66969,
    "latitude": 52.4868,
    "street": "Adrichemlaan 3",
    "city": "1947KX BEVERWIJK",
    "url": "beverwijk",
    "logo": "",
    "tel": "",
    "tenue": "t_41.png"
  },
  {
    "code": "BBDX69U",
    "name": "SCHOONHOVEN",
    "longitude": 4.85431,
    "latitude": 51.9496,
    "street": "Nieuwe Singel 41",
    "city": "2871AX SCHOONHOVEN",
    "url": "schoonhoven",
    "logo": "",
    "tel": "",
    "tenue": "t_83.png"
  },
  {
    "code": "BBKX38Z",
    "name": "AWC",
    "longitude": 5.74813,
    "latitude": 51.8082,
    "street": "De Wychert 1",
    "city": "6603AH WIJCHEN",
    "url": "awc",
    "logo": "",
    "tel": "",
    "tenue": "t_82.png"
  },
  {
    "code": "BBJH81O",
    "name": "OLYMPIA18",
    "longitude": 5.9331,
    "latitude": 51.6479,
    "street": "Graafseweg 34",
    "city": "5831AB BOXMEER",
    "url": "olympia18",
    "logo": "",
    "tel": "",
    "tenue": ""
  },
  {
    "code": "BBBB08J",
    "name": "ACV",
    "longitude": 6.5435,
    "latitude": 52.9861,
    "street": "Kortbossen 1",
    "city": "9405BM ASSEN",
    "url": "acv",
    "logo": "",
    "tel": "",
    "tenue": "t_183.png"
  },
  {
    "code": "BBFW879",
    "name": "SVW 27",
    "longitude": 4.85191,
    "latitude": 52.6676,
    "street": "Parklaan 3",
    "city": "1701GS HEERHUGOWAARD",
    "url": "svw-27",
    "logo": "",
    "tel": "",
    "tenue": "t_242.png"
  },
  {
    "code": "BBKY50E",
    "name": "WVF",
    "longitude": 6.05351,
    "latitude": 52.5185,
    "street": "Stinsweg 15",
    "city": "8042AZ ZWOLLE",
    "url": "wvf",
    "logo": "",
    "tel": "",
    "tenue": "t_23.png"
  },
  {
    "code": "BBKS47C",
    "name": "AD 69",
    "longitude": 6.58378,
    "latitude": 51.9124,
    "street": "Bocholtsestraatweg 67 A",
    "city": "7121JB AALTEN",
    "url": "ad-69",
    "logo": "",
    "tel": "",
    "tenue": "t_22.png"
  },
  {
    "code": "FWVQ38K",
    "name": "EBC/DELFSTRAHUIZEN",
    "longitude": 5.82486,
    "latitude": 52.8735,
    "street": "De Kampen 1",
    "city": "8508RR DELFSTRAHUIZEN",
    "url": "ebcdelfstrahuizen",
    "logo": "",
    "tel": "",
    "tenue": ""
  },
  {
    "code": "LWZQ77Z",
    "name": "ANATOLIA",
    "longitude": 5.49401,
    "latitude": 52.5196,
    "street": "Badweg 21",
    "city": "8223PA LELYSTAD",
    "url": "anatolia",
    "logo": "",
    "tel": "",
    "tenue": ""
  },
  {
    "code": "BBCZ74V",
    "name": "EILANDERS DE  ASV",
    "longitude": 4.85432,
    "latitude": 52.3399,
    "street": "Burgerweeshuispad 54",
    "city": "1076EP AMSTERDAM",
    "url": "eilanders-de-asv",
    "logo": "",
    "tel": "",
    "tenue": ""
  },
  {
    "code": "BBJT13V",
    "name": "DESM",
    "longitude": 5.73081,
    "latitude": 51.2455,
    "street": "Koekoeksweg 6 A",
    "city": "6005NG WEERT",
    "url": "desm",
    "logo": "",
    "tel": "",
    "tenue": "t_244.png"
  },
  {
    "code": "NKTP90R",
    "name": "FC OSS",
    "longitude": 5.52764,
    "latitude": 51.7547,
    "street": "Mondriaanlaan 4",
    "city": "5342CN OSS",
    "url": "fc-oss",
    "logo": "",
    "tel": "",
    "tenue": ""
  },
  {
    "code": "BBJW66U",
    "name": "IVS",
    "longitude": 5.77788,
    "latitude": 51.0087,
    "street": "Kanaalweg 20",
    "city": "6129AZ URMOND",
    "url": "ivs",
    "logo": "",
    "tel": "",
    "tenue": "t_744.png"
  },
  {
    "code": "BBCY16A",
    "name": "EENDRACHT 82  SC",
    "longitude": 4.78815,
    "latitude": 52.3761,
    "street": "Bok de Korverweg 1",
    "city": "1067HR AMSTERDAM",
    "url": "eendracht-82-sc",
    "logo": "",
    "tel": "",
    "tenue": "t_666.png"
  },
  {
    "code": "BBJX12G",
    "name": "STICHTING MVV",
    "longitude": 5.71902,
    "latitude": 50.8564,
    "street": "Olympiaweg 1",
    "city": "6225XX MAASTRICHT",
    "url": "stichting-mvv",
    "logo": "",
    "tel": "",
    "tenue": ""
  },
  {
    "code": "BBCY96Y",
    "name": "SPORTING NOORD",
    "longitude": 4.87967,
    "latitude": 52.4219,
    "street": "Sportpark Oostzanerwerf 2",
    "city": "1035EW AMSTERDAM",
    "url": "sporting-noord",
    "logo": "",
    "tel": "",
    "tenue": ""
  },
  {
    "code": "BBGX365",
    "name": "LEIDSCHE BOYS",
    "longitude": 4.48013,
    "latitude": 52.1394,
    "street": "Voorschoterweg 8 C",
    "city": "2324NE LEIDEN",
    "url": "leidsche-boys",
    "logo": "",
    "tel": "",
    "tenue": "t_188.png"
  },
  {
    "code": "BBKS54C",
    "name": "FORTISSIMO",
    "longitude": 5.66904,
    "latitude": 52.0151,
    "street": "Sportparkweg 8",
    "city": "6717LD EDE GLD",
    "url": "fortissimo",
    "logo": "",
    "tel": "",
    "tenue": ""
  },
  {
    "code": "BBBB23O",
    "name": "NICATOR",
    "longitude": 5.82865,
    "latitude": 53.2103,
    "street": "Kalverdijkje 66",
    "city": "8924JJ LEEUWARDEN",
    "url": "nicator",
    "logo": "",
    "tel": "",
    "tenue": "t_22.png"
  },
  {
    "code": "BBJS534",
    "name": "BOEKOEL",
    "longitude": 6.05051,
    "latitude": 51.2138,
    "street": "Hoenderberg 4",
    "city": "6071NA SWALMEN",
    "url": "boekoel",
    "logo": "",
    "tel": "",
    "tenue": "t_1.png"
  },
  {
    "code": "BBKX657",
    "name": "COLMSCHATE 33",
    "longitude": 6.2261,
    "latitude": 52.2533,
    "street": "David Wijnveldtweg 2",
    "city": "7425AC DEVENTER",
    "url": "colmschate-33",
    "logo": "",
    "tel": "",
    "tenue": "t_244.png"
  },
  {
    "code": "BBHV568",
    "name": "GPC VLISSINGEN",
    "longitude": 3.5755,
    "latitude": 51.4587,
    "street": "Bosweg 7",
    "city": "4383TV VLISSINGEN",
    "url": "gpc-vlissingen",
    "logo": "",
    "tel": "",
    "tenue": "t_25.png"
  },
  {
    "code": "BBDB53D",
    "name": "DIO SV",
    "longitude": 4.63797,
    "latitude": 52.3662,
    "street": "Noord Schalkwijkerweg 109",
    "city": "2034JA HAARLEM",
    "url": "dio-sv",
    "logo": "",
    "tel": "",
    "tenue": "t_301.png"
  },
  {
    "code": "BBDY81X",
    "name": "ONA",
    "longitude": 4.70055,
    "latitude": 52.0067,
    "street": "Gerard Leeustraat 2",
    "city": "2802RZ GOUDA",
    "url": "ona",
    "logo": "",
    "tel": "",
    "tenue": "t_221.png"
  },
  {
    "code": "MLYM923",
    "name": "GVB",
    "longitude": 6.26137,
    "latitude": 53.2051,
    "street": "Provincialeweg 139",
    "city": "9863PE DOEZUM",
    "url": "gvb",
    "logo": "",
    "tel": "",
    "tenue": "t_280.png"
  },
  {
    "code": "BBJS659",
    "name": "SLEKKER BOYS",
    "longitude": 5.88203,
    "latitude": 51.0862,
    "street": "Hoogstraat 25",
    "city": "6102XR ECHT",
    "url": "slekker-boys",
    "logo": "",
    "tel": "",
    "tenue": "t_22.png"
  },
  {
    "code": "BBGW03I",
    "name": "NATIONALE NEDERLANDEN DH",
    "longitude": 4.22056,
    "latitude": 52.047,
    "street": "Madesteinweg 1",
    "city": "2553EC 'S-GRAVENHAGE",
    "url": "nationale-nederlanden-dh",
    "logo": "",
    "tel": "",
    "tenue": ""
  },
  {
    "code": "BBCC77L",
    "name": "WOUDENBERG",
    "longitude": 5.40642,
    "latitude": 52.0855,
    "street": "John F. Kennedylaan 116",
    "city": "3931XM WOUDENBERG",
    "url": "woudenberg",
    "logo": "",
    "tel": "",
    "tenue": "t_244.png"
  },
  {
    "code": "BBDD29K",
    "name": "DVS (ADAM)",
    "longitude": 4.78442,
    "latitude": 52.3821,
    "street": "Tom Schreursweg 10",
    "city": "1067MC AMSTERDAM",
    "url": "dvs-adam",
    "logo": "",
    "tel": "",
    "tenue": ""
  },
  {
    "code": "BBJK18P",
    "name": "BZVV/DITISIT",
    "longitude": 5.3959,
    "latitude": 51.336,
    "street": "Koolakkers 5",
    "city": "5563AV WESTERHOVEN",
    "url": "bzvvditisit",
    "logo": "",
    "tel": "",
    "tenue": ""
  },
  {
    "code": "BBCB16V",
    "name": "WATERGOOR",
    "longitude": 5.47504,
    "latitude": 52.227,
    "street": "Watergoorweg 44",
    "city": "3861MA NIJKERK GLD",
    "url": "watergoor",
    "logo": "",
    "tel": "",
    "tenue": ""
  },
  {
    "code": "BBJS79G",
    "name": "BSV LIMBURGIA",
    "longitude": 5.97214,
    "latitude": 50.956,
    "street": "Jonker van Weerststraat 6",
    "city": "6441SW BRUNSSUM",
    "url": "bsv-limburgia",
    "logo": "",
    "tel": "",
    "tenue": ""
  },
  {
    "code": "BBBZ88V",
    "name": "FC HORST",
    "longitude": 5.57093,
    "latitude": 52.3122,
    "street": "Buitenbrinkweg 70",
    "city": "3853LZ ERMELO",
    "url": "fc-horst",
    "logo": "",
    "tel": "",
    "tenue": "t_25.png"
  },
  {
    "code": "LWNS29G",
    "name": "RODA JC",
    "longitude": 6.0051,
    "latitude": 50.8581,
    "street": "Roda J.C. Ring 1",
    "city": "6466NH KERKRADE",
    "url": "roda-jc_1",
    "logo": "",
    "tel": "",
    "tenue": "t_444.png"
  },
  {
    "code": "BBBJ16U",
    "name": "BLAUW GEEL15",
    "longitude": 6.59838,
    "latitude": 53.196,
    "street": "Kooiweg 1",
    "city": "9722BZ GRONINGEN",
    "url": "blauw-geel15",
    "logo": "",
    "tel": "",
    "tenue": ""
  },
  {
    "code": "GKRJ82H",
    "name": "BLIXEMBOYS",
    "longitude": 5.48623,
    "latitude": 51.4832,
    "street": "Henegouwenlaan 2",
    "city": "5628WK EINDHOVEN",
    "url": "blixemboys",
    "logo": "",
    "tel": "",
    "tenue": ""
  },
  {
    "code": "GFCB92O",
    "name": "NIEDORP ZVV",
    "longitude": 4.89763,
    "latitude": 52.7619,
    "street": "Hartweg 35",
    "city": "1731LT WINKEL",
    "url": "niedorp-zvv",
    "logo": "",
    "tel": "",
    "tenue": ""
  },
  {
    "code": "LZVM01N",
    "name": "FC ZUTPHEN",
    "longitude": 6.19347,
    "latitude": 52.1291,
    "street": "De Waarden 309",
    "city": "7206GV ZUTPHEN",
    "url": "fc-zutphen",
    "logo": "",
    "tel": "",
    "tenue": "t_986.png"
  },
  {
    "code": "BBJS202",
    "name": "RK SV FCV",
    "longitude": 6.20181,
    "latitude": 51.3856,
    "street": "Lovendaalseweg 4",
    "city": "5916NN VENLO",
    "url": "rk-sv-fcv",
    "logo": "",
    "tel": "",
    "tenue": ""
  },
  {
    "code": "BBCC75J",
    "name": "VEENENDAAL",
    "longitude": 5.56617,
    "latitude": 52.0197,
    "street": "Groeneveldselaan 15",
    "city": "3902HA VEENENDAAL",
    "url": "veenendaal",
    "logo": "",
    "tel": "",
    "tenue": "t_682.png"
  },
  {
    "code": "BBBZ58M",
    "name": "PVDV",
    "longitude": 5.11687,
    "latitude": 52.0677,
    "street": "Verlengde Hoogravenseweg 203",
    "city": "3523KJ UTRECHT",
    "url": "pvdv",
    "logo": "",
    "tel": "",
    "tenue": ""
  },
  {
    "code": "BBKX83B",
    "name": "BARBAROS",
    "longitude": 6.8065,
    "latitude": 52.2531,
    "street": "Kuipersdijk 46 A",
    "city": "7552BJ HENGELO OV",
    "url": "barbaros",
    "logo": "",
    "tel": "",
    "tenue": "t_884.png"
  },
  {
    "code": "LZZH20B",
    "name": "BARÃ§A",
    "longitude": 4.77511,
    "latitude": 51.6157,
    "street": "Terheijdenseweg 504",
    "city": "4826AB BREDA",
    "url": "bara",
    "logo": "",
    "tel": "",
    "tenue": "t_147.png"
  },
  {
    "code": "BBJV126",
    "name": "ZVV VENRODE/PARTYLOOKNL",
    "longitude": 5.99004,
    "latitude": 51.5319,
    "street": "Kruidenlaan 103",
    "city": "5803BE VENRAY",
    "url": "zvv-venrodepartylooknl",
    "logo": "",
    "tel": "",
    "tenue": ""
  },
  {
    "code": "BBJT366",
    "name": "VCH",
    "longitude": 6.11826,
    "latitude": 51.3707,
    "street": "Langvenweg 8",
    "city": "5927PC VENLO",
    "url": "vch",
    "logo": "",
    "tel": "",
    "tenue": "t_23.png"
  },
  {
    "code": "BBKW62X",
    "name": "DZC 68",
    "longitude": 6.27842,
    "latitude": 51.9644,
    "street": "Sportweg 6",
    "city": "7006GJ DOETINCHEM",
    "url": "dzc-68",
    "logo": "",
    "tel": "",
    "tenue": "t_48.png"
  },
  {
    "code": "BBJJ20P",
    "name": "SPARTA25",
    "longitude": 5.61784,
    "latitude": 51.5359,
    "street": "Heereindsestraat 10",
    "city": "5741RB BEEK EN DONK",
    "url": "sparta25",
    "logo": "",
    "tel": "",
    "tenue": ""
  },
  {
    "code": "BBCB86I",
    "name": "JCK/AISO",
    "longitude": 5.09877,
    "latitude": 52.0793,
    "street": "Grebbeberglaan 13",
    "city": "3527VX UTRECHT",
    "url": "jckaiso",
    "logo": "",
    "tel": "",
    "tenue": ""
  },
  {
    "code": "BBBG44M",
    "name": "GSAVV FORWARD",
    "longitude": 6.5345,
    "latitude": 53.2371,
    "street": "Blauwborgje 4",
    "city": "9747AC GRONINGEN",
    "url": "gsavv-forward",
    "logo": "",
    "tel": "",
    "tenue": "t_924.png"
  },
  {
    "code": "BBCB514",
    "name": "DVS (SOEST)/CAMPING SOEST",
    "longitude": 5.29212,
    "latitude": 52.1758,
    "street": "Beukenlaan 47",
    "city": "3762AG SOEST",
    "url": "dvs-soestcamping-soest",
    "logo": "",
    "tel": "",
    "tenue": ""
  },
  {
    "code": "BBJL17T",
    "name": "THEOLE",
    "longitude": 5.42274,
    "latitude": 51.8934,
    "street": "Groenendaallaan 10",
    "city": "4002AH TIEL",
    "url": "theole",
    "logo": "",
    "tel": "",
    "tenue": "t_184.png"
  },
  {
    "code": "BBFZ45A",
    "name": "STEDEBROEC SV",
    "longitude": 5.21602,
    "latitude": 52.6937,
    "street": "Raadhuislaan 8",
    "city": "1613KR GROOTEBROEK",
    "url": "stedebroec-sv",
    "logo": "",
    "tel": "",
    "tenue": ""
  },
  {
    "code": "BBBZ20F",
    "name": "HVC",
    "longitude": 5.41282,
    "latitude": 52.1819,
    "street": "Sportpark Zielhorst 6",
    "city": "3822ZT AMERSFOORT",
    "url": "hvc",
    "logo": "",
    "tel": "",
    "tenue": "t_41.png"
  },
  {
    "code": "BBJX33N",
    "name": "ZVVF/ROB PREVOO MAKELAARDIJ",
    "longitude": 5.81876,
    "latitude": 50.8242,
    "street": "President Kennedystraat 42",
    "city": "6269CC MARGRATEN",
    "url": "zvvfrob-prevoo-makelaardij",
    "logo": "",
    "tel": "",
    "tenue": ""
  },
  {
    "code": "BBJC956",
    "name": "DVVC",
    "longitude": 4.92359,
    "latitude": 51.6225,
    "street": "Sportlaan 4",
    "city": "5101TA DONGEN",
    "url": "dvvc",
    "logo": "",
    "tel": "",
    "tenue": "t_82.png"
  },
  {
    "code": "BBKW90G",
    "name": "ALMELO",
    "longitude": 6.65108,
    "latitude": 52.3406,
    "street": "Koedijk 83 B",
    "city": "7606AA ALMELO",
    "url": "almelo",
    "logo": "",
    "tel": "",
    "tenue": "t_43.png"
  },
  {
    "code": "BBKT49J",
    "name": "ZUTPHANIA",
    "longitude": 6.21276,
    "latitude": 52.128,
    "street": "Laan naar Eme 99",
    "city": "7204LZ ZUTPHEN",
    "url": "zutphania",
    "logo": "",
    "tel": "",
    "tenue": ""
  },
  {
    "code": "BBGX62A",
    "name": "GHC",
    "longitude": 4.48013,
    "latitude": 52.1394,
    "street": "Voorschoterweg 8 B",
    "city": "2324NE LEIDEN",
    "url": "ghc",
    "logo": "",
    "tel": "",
    "tenue": "t_1262.png"
  },
  {
    "code": "BBDB50K",
    "name": "HYS",
    "longitude": 4.65614,
    "latitude": 52.3711,
    "street": "Reinaldapad 6",
    "city": "2033SX HAARLEM",
    "url": "hys",
    "logo": "",
    "tel": "",
    "tenue": "t_1.png"
  },
  {
    "code": "BBHY55M",
    "name": "FC SCHADEWIJK",
    "longitude": 5.54333,
    "latitude": 51.7757,
    "street": "Scheldestraat 31",
    "city": "5347JC OSS",
    "url": "fc-schadewijk",
    "logo": "",
    "tel": "",
    "tenue": "t_82.png"
  },
  {
    "code": "BBBZ29E",
    "name": "BVV 31",
    "longitude": 5.25499,
    "latitude": 52.2728,
    "street": "Schapendrift 1",
    "city": "1261HK BLARICUM",
    "url": "bvv-31",
    "logo": "",
    "tel": "",
    "tenue": "t_48.png"
  },
  {
    "code": "BBKV51O",
    "name": "ACHILLES 12",
    "longitude": 6.78521,
    "latitude": 52.2785,
    "street": "Oude Bornseweg 101",
    "city": "7556GW HENGELO OV",
    "url": "achilles-12",
    "logo": "",
    "tel": "",
    "tenue": "t_21.png"
  },
  {
    "code": "BBDX85W",
    "name": "OVERMAAS",
    "longitude": 4.52842,
    "latitude": 51.8916,
    "street": "Stadionlaan 15",
    "city": "3078XV ROTTERDAM",
    "url": "overmaas",
    "logo": "",
    "tel": "",
    "tenue": "t_362.png"
  },
  {
    "code": "BBHT39T",
    "name": "BEVELANDERS",
    "longitude": 3.70566,
    "latitude": 51.5713,
    "street": "Nieuwstraat 65 A",
    "city": "4493BA KAMPERLAND",
    "url": "bevelanders",
    "logo": "",
    "tel": "",
    "tenue": "t_181.png"
  },
  {
    "code": "FRZM63B",
    "name": "UHC",
    "longitude": 5.67119,
    "latitude": 51.8412,
    "street": "Sportlaantje 2",
    "city": "6616BD HERNEN",
    "url": "uhc",
    "logo": "",
    "tel": "",
    "tenue": "t_48.png"
  },
  {
    "code": "BBBC567",
    "name": "STAPHORST",
    "longitude": 6.20728,
    "latitude": 52.6544,
    "street": "Parallelweg 27",
    "city": "7951AT STAPHORST",
    "url": "staphorst",
    "logo": "",
    "tel": "",
    "tenue": "t_48.png"
  },
  {
    "code": "LWNY092",
    "name": "SBV EXCELSIOR",
    "longitude": 4.51952,
    "latitude": 51.9167,
    "street": "Honingerdijk 110",
    "city": "3062NX ROTTERDAM",
    "url": "sbv-excelsior",
    "logo": "",
    "tel": "",
    "tenue": "t_8.png"
  },
  {
    "code": "BBKW48X",
    "name": "VELUWEZOOM",
    "longitude": 5.97533,
    "latitude": 52.0074,
    "street": "De Pinkenberg 1",
    "city": "6891DM ROZENDAAL",
    "url": "veluwezoom",
    "logo": "",
    "tel": "",
    "tenue": "t_48.png"
  },
  {
    "code": "GFBG917",
    "name": "BLAUW-WIT AMSTERDAM FC",
    "longitude": 4.80653,
    "latitude": 52.3396,
    "street": "Sloterweg 1045",
    "city": "1066CD AMSTERDAM",
    "url": "blauwwit-amsterdam-fc",
    "logo": "",
    "tel": "",
    "tenue": "t_103.png"
  },
  {
    "code": "BBJV55L",
    "name": "MESTREECH ZVV",
    "longitude": 5.66395,
    "latitude": 50.8489,
    "street": "Eenhoornsingel 100",
    "city": "6216CW MAASTRICHT",
    "url": "mestreech-zvv",
    "logo": "",
    "tel": "",
    "tenue": ""
  },
  {
    "code": "BBJT49C",
    "name": "VOERENDAAL",
    "longitude": 5.93325,
    "latitude": 50.8814,
    "street": "Goswijnstraat 1",
    "city": "6367EB VOERENDAAL",
    "url": "voerendaal",
    "logo": "",
    "tel": "",
    "tenue": "t_21.png"
  },
  {
    "code": "BBCY60T",
    "name": "MUIDEN  SC",
    "longitude": 5.06512,
    "latitude": 52.3318,
    "street": "Prinses Irenestraat 21 A",
    "city": "1398CG MUIDEN",
    "url": "muiden-sc",
    "logo": "",
    "tel": "",
    "tenue": "t_303.png"
  },
  {
    "code": "BBJS33W",
    "name": "STANDAARD",
    "longitude": 5.6554,
    "latitude": 50.8682,
    "street": "Toustruwe 10",
    "city": "6218XZ MAASTRICHT",
    "url": "standaard",
    "logo": "",
    "tel": "",
    "tenue": "t_183.png"
  },
  {
    "code": "BBHT56W",
    "name": "AUTOBEDRIJF VAN OSTA",
    "longitude": 4.45668,
    "latitude": 51.5871,
    "street": "Veerkensweg 22",
    "city": "4751CS OUD GASTEL",
    "url": "autobedrijf-van-osta",
    "logo": "",
    "tel": "",
    "tenue": ""
  },
  {
    "code": "BBFB75Z",
    "name": "ZWERVERS, IJVV DE",
    "longitude": 4.52991,
    "latitude": 51.8844,
    "street": "Smeetslandseweg 15",
    "city": "3079CR ROTTERDAM",
    "url": "zwervers-ijvv-de",
    "logo": "",
    "tel": "",
    "tenue": "t_88.png"
  },
  {
    "code": "BBBB78A",
    "name": "DIVA83",
    "longitude": 6.56933,
    "latitude": 53.1978,
    "street": "Vondellaan 75",
    "city": "9721LB GRONINGEN",
    "url": "diva83",
    "logo": "",
    "tel": "",
    "tenue": ""
  },
  {
    "code": "MJGL61A",
    "name": "ZVWEERT",
    "longitude": 5.68328,
    "latitude": 51.2217,
    "street": "Bocholterweg 89",
    "city": "6006TL WEERT",
    "url": "zvweert",
    "logo": "",
    "tel": "",
    "tenue": ""
  },
  {
    "code": "BBJJ34M",
    "name": "TOP",
    "longitude": 5.53005,
    "latitude": 51.7561,
    "street": "Hescheweg 79 a",
    "city": "5342CG OSS",
    "url": "top",
    "logo": "",
    "tel": "",
    "tenue": "t_81.png"
  },
  {
    "code": "BBGC27Y",
    "name": "PLUBOS",
    "longitude": 4.71255,
    "latitude": 52.6335,
    "street": "Terborchlaan 301",
    "city": "1816MH ALKMAAR",
    "url": "plubos",
    "logo": "",
    "tel": "",
    "tenue": ""
  },
  {
    "code": "BBCZ32H",
    "name": "BRANDWEER",
    "longitude": 4.85432,
    "latitude": 52.3399,
    "street": "Burgerweeshuispad 54",
    "city": "1076EP AMSTERDAM",
    "url": "brandweer",
    "logo": "",
    "tel": "",
    "tenue": ""
  },
  {
    "code": "BBKT248",
    "name": "SCP",
    "longitude": 5.59559,
    "latitude": 51.8784,
    "street": "Hosterd 65",
    "city": "6655AE PUIFLIJK",
    "url": "scp",
    "logo": "",
    "tel": "",
    "tenue": "t_22.png"
  },
  {
    "code": "BBJD02B",
    "name": "EINDHOVEN AV",
    "longitude": 5.47237,
    "latitude": 51.4122,
    "street": "Velddoornweg 6",
    "city": "5644SZ EINDHOVEN",
    "url": "eindhoven-av",
    "logo": "",
    "tel": "",
    "tenue": "t_263.png"
  },
  {
    "code": "BBKW674",
    "name": "AJC 96",
    "longitude": 7.01509,
    "latitude": 52.268,
    "street": "Bookholtlaan 1",
    "city": "7581BB LOSSER",
    "url": "ajc-96",
    "logo": "",
    "tel": "",
    "tenue": "t_686.png"
  },
  {
    "code": "BBFC31O",
    "name": "CWO",
    "longitude": 4.3655,
    "latitude": 51.9153,
    "street": "Trimpad 12",
    "city": "3135GA VLAARDINGEN",
    "url": "cwo",
    "logo": "",
    "tel": "",
    "tenue": "t_23.png"
  },
  {
    "code": "BBJL41W",
    "name": "SPORTING/EXPOSUD",
    "longitude": 5.39121,
    "latitude": 51.4282,
    "street": "De Dom 9",
    "city": "5508GE VELDHOVEN",
    "url": "sportingexposud",
    "logo": "",
    "tel": "",
    "tenue": ""
  },
  {
    "code": "BBHT80B",
    "name": "BRISTOL TEAM/B-FIT",
    "longitude": 4.43447,
    "latitude": 51.5378,
    "street": "De Stok 12",
    "city": "4703SZ ROOSENDAAL",
    "url": "bristol-teambfit",
    "logo": "",
    "tel": "",
    "tenue": ""
  },
  {
    "code": "BBJH89W",
    "name": "RBC ROOSENDAAL",
    "longitude": 4.45403,
    "latitude": 51.5413,
    "street": "Borchwerf 4",
    "city": "4704RG ROOSENDAAL",
    "url": "rbc-roosendaal_1",
    "logo": "",
    "tel": "",
    "tenue": ""
  },
  {
    "code": "BBCG37T",
    "name": "TER BEEK",
    "longitude": 4.95554,
    "latitude": 52.3155,
    "street": "Anton de Komplein 157",
    "city": "1102DR AMSTERDAM ZUIDOOST",
    "url": "ter-beek",
    "logo": "",
    "tel": "",
    "tenue": ""
  },
  {
    "code": "BBJV96Y",
    "name": "WZV87",
    "longitude": 5.73069,
    "latitude": 51.2499,
    "street": "Sportstraat 3",
    "city": "6004EX WEERT",
    "url": "wzv87",
    "logo": "",
    "tel": "",
    "tenue": ""
  },
  {
    "code": "BBJK09J",
    "name": "BARONIE",
    "longitude": 4.79858,
    "latitude": 51.5772,
    "street": "Blauwe Kei 1 a",
    "city": "4834AW BREDA",
    "url": "baronie",
    "logo": "",
    "tel": "",
    "tenue": "t_22.png"
  },
  {
    "code": "BBDX984",
    "name": "CVC REEUWIJK",
    "longitude": 4.72232,
    "latitude": 52.052,
    "street": "Buitenomweg 1",
    "city": "2811BM REEUWIJK",
    "url": "cvc-reeuwijk",
    "logo": "",
    "tel": "",
    "tenue": "t_1583.png"
  },
  {
    "code": "BBKY00T",
    "name": "ANGERLO VOORUIT",
    "longitude": 6.12993,
    "latitude": 51.9938,
    "street": "Mariendaalseweg 15 A",
    "city": "6986AC ANGERLO",
    "url": "angerlo-vooruit",
    "logo": "",
    "tel": "",
    "tenue": "t_135.png"
  },
  {
    "code": "BBKT88U",
    "name": "ESC",
    "longitude": 5.83736,
    "latitude": 52.4444,
    "street": "Zwolscheweg 6 A",
    "city": "8081CG ELBURG",
    "url": "esc",
    "logo": "",
    "tel": "",
    "tenue": "t_103.png"
  },
  {
    "code": "BBKS76K",
    "name": "SCE",
    "longitude": 5.7966,
    "latitude": 51.8375,
    "street": "de Meeuwse Acker 2029",
    "city": "6546DZ NIJMEGEN",
    "url": "sce",
    "logo": "",
    "tel": "",
    "tenue": "t_156.png"
  },
  {
    "code": "BBFW45T",
    "name": "KSV",
    "longitude": 4.84196,
    "latitude": 52.6495,
    "street": "Jan Glijnisweg 35 A",
    "city": "1703RK HEERHUGOWAARD",
    "url": "ksv",
    "logo": "",
    "tel": "",
    "tenue": "t_23.png"
  },
  {
    "code": "BBHW448",
    "name": "KAPELLE",
    "longitude": 3.96726,
    "latitude": 51.4809,
    "street": "Vroonlandseweg 53",
    "city": "4421BW KAPELLE",
    "url": "kapelle",
    "logo": "",
    "tel": "",
    "tenue": "t_361.png"
  },
  {
    "code": "BBGY65I",
    "name": "VNI",
    "longitude": 4.48371,
    "latitude": 52.0382,
    "street": "Prismalaan 40",
    "city": "2718CX ZOETERMEER",
    "url": "vni",
    "logo": "",
    "tel": "",
    "tenue": ""
  },
  {
    "code": "BBBD03O",
    "name": "VEELERVEEN",
    "longitude": 7.13481,
    "latitude": 53.0444,
    "street": "Veelerveensterweg 28 A",
    "city": "9566PG VEELERVEEN",
    "url": "veelerveen",
    "logo": "",
    "tel": "",
    "tenue": "t_244.png"
  },
  {
    "code": "BBDY26K",
    "name": "NIEUWKOOP",
    "longitude": 4.77624,
    "latitude": 52.1549,
    "street": "Ladderhaak 2",
    "city": "2421NK NIEUWKOOP",
    "url": "nieuwkoop",
    "logo": "",
    "tel": "",
    "tenue": "t_25.png"
  },
  {
    "code": "BBJB53L",
    "name": "DEURNE",
    "longitude": 5.80895,
    "latitude": 51.4498,
    "street": "Energiestraat 10",
    "city": "5753RN DEURNE",
    "url": "deurne",
    "logo": "",
    "tel": "",
    "tenue": "t_43.png"
  },
  {
    "code": "BBGW88H",
    "name": "ALPHEN",
    "longitude": 4.67326,
    "latitude": 52.1338,
    "street": "Sportlaan 4-5-9",
    "city": "2406LD ALPHEN AAN DEN RIJN",
    "url": "alphen",
    "logo": "",
    "tel": "",
    "tenue": ""
  },
  {
    "code": "BBFZ73H",
    "name": "MEDEMBLIK FC",
    "longitude": 5.09488,
    "latitude": 52.7635,
    "street": "Almereweg 41",
    "city": "1671ND MEDEMBLIK",
    "url": "medemblik-fc",
    "logo": "",
    "tel": "",
    "tenue": "t_136.png"
  },
  {
    "code": "BBCZ013",
    "name": "SWIFT",
    "longitude": 4.86703,
    "latitude": 52.3485,
    "street": "Olympiaplein 31 A",
    "city": "1077CL AMSTERDAM",
    "url": "swift",
    "logo": "",
    "tel": "",
    "tenue": "t_43.png"
  },
  {
    "code": "BBCY10E",
    "name": "HEEMSTEDE HFC",
    "longitude": 4.62552,
    "latitude": 52.3388,
    "street": "Sportparklaan 16",
    "city": "2103VT HEEMSTEDE",
    "url": "heemstede-hfc",
    "logo": "",
    "tel": "",
    "tenue": "t_156.png"
  },
  {
    "code": "BBJB63O",
    "name": "DUIVELAND",
    "longitude": 4.03728,
    "latitude": 51.6523,
    "street": "Weelstraat 5",
    "city": "4307BR OOSTERLAND",
    "url": "duiveland",
    "logo": "",
    "tel": "",
    "tenue": "t_244.png"
  },
  {
    "code": "BBFB33L",
    "name": "VVOR",
    "longitude": 4.53287,
    "latitude": 51.9381,
    "street": "Prinsenlaan 991",
    "city": "3062CT ROTTERDAM",
    "url": "vvor",
    "logo": "",
    "tel": "",
    "tenue": "t_183.png"
  },
  {
    "code": "FZTG08A",
    "name": "VV HELLENDOORN",
    "longitude": 6.45565,
    "latitude": 52.3895,
    "street": "Koemaste 2 A",
    "city": "7447AV HELLENDOORN",
    "url": "vv-hellendoorn",
    "logo": "",
    "tel": "",
    "tenue": "t_147.png"
  },
  {
    "code": "GGTW95O",
    "name": "IBC03",
    "longitude": 5.70794,
    "latitude": 50.8941,
    "street": "Op de Bos 55",
    "city": "6223ET MAASTRICHT",
    "url": "ibc03",
    "logo": "",
    "tel": "",
    "tenue": ""
  },
  {
    "code": "BBCY229",
    "name": "AJAX AFC",
    "longitude": 4.92871,
    "latitude": 52.316,
    "street": "Borchlandweg 16-18",
    "city": "1099CT AMSTERDAM",
    "url": "ajax-afc",
    "logo": "",
    "tel": "",
    "tenue": "t_301.png"
  },
  {
    "code": "BBJT252",
    "name": "SYLVIA",
    "longitude": 6.01723,
    "latitude": 50.9115,
    "street": "Puddelerweg 1",
    "city": "6373CD LANDGRAAF",
    "url": "sylvia",
    "logo": "",
    "tel": "",
    "tenue": ""
  },
  {
    "code": "BBHV08P",
    "name": "CLUZONA 74",
    "longitude": 4.39177,
    "latitude": 51.5188,
    "street": "Molensingel 38",
    "city": "4724CR WOUW",
    "url": "cluzona-74",
    "logo": "",
    "tel": "",
    "tenue": ""
  },
  {
    "code": "BBKY364",
    "name": "BAS",
    "longitude": 5.68598,
    "latitude": 52.4498,
    "street": "Sportlaan 3",
    "city": "8256CE BIDDINGHUIZEN",
    "url": "bas",
    "logo": "",
    "tel": "",
    "tenue": "t_21.png"
  },
  {
    "code": "BBKW722",
    "name": "SV ZWOLLE",
    "longitude": 6.11865,
    "latitude": 52.5024,
    "street": "Hyacinthstraat 66",
    "city": "8013XZ ZWOLLE",
    "url": "sv-zwolle",
    "logo": "",
    "tel": "",
    "tenue": "t_24.png"
  },
  {
    "code": "BBCZ60Y",
    "name": "ABN AMRO  ZVC",
    "longitude": 4.85432,
    "latitude": 52.3399,
    "street": "Burgerweeshuispad 54",
    "city": "1076EP AMSTERDAM",
    "url": "abn-amro-zvc",
    "logo": "",
    "tel": "",
    "tenue": ""
  },
  {
    "code": "BBJD847",
    "name": "HVV HELMOND",
    "longitude": 5.65093,
    "latitude": 51.471,
    "street": "Heeklaan 21",
    "city": "5706BP HELMOND",
    "url": "hvv-helmond",
    "logo": "",
    "tel": "",
    "tenue": "t_184.png"
  },
  {
    "code": "BBJG07V",
    "name": "ZUNDERT",
    "longitude": 4.66227,
    "latitude": 51.4641,
    "street": "Wildertsedijk 22",
    "city": "4881EV ZUNDERT",
    "url": "zundert",
    "logo": "",
    "tel": "",
    "tenue": "t_181.png"
  },
  {
    "code": "BBFW51S",
    "name": "JONG HOLLAND",
    "longitude": 4.73257,
    "latitude": 52.6213,
    "street": "Sportlaan 4",
    "city": "1815LV ALKMAAR",
    "url": "jong-holland",
    "logo": "",
    "tel": "",
    "tenue": "t_245.png"
  },
  {
    "code": "BBBC78F",
    "name": "SGVV07",
    "longitude": 6.54764,
    "latitude": 53.2308,
    "street": "Eikenlaan 292",
    "city": "9741EW GRONINGEN",
    "url": "sgvv07",
    "logo": "",
    "tel": "",
    "tenue": ""
  },
  {
    "code": "BBJC794",
    "name": "DVO60",
    "longitude": 4.44508,
    "latitude": 51.5275,
    "street": "Sportstraat 17",
    "city": "4708AP ROOSENDAAL",
    "url": "dvo60",
    "logo": "",
    "tel": "",
    "tenue": "t_305.png"
  },
  {
    "code": "BBJK48Y",
    "name": "GESTEL",
    "longitude": 5.45134,
    "latitude": 51.4159,
    "street": "Locatellistraat 3",
    "city": "5654JB EINDHOVEN",
    "url": "gestel",
    "logo": "",
    "tel": "",
    "tenue": "t_48.png"
  },
  {
    "code": "BBJL19V",
    "name": "THOLENSE BOYS",
    "longitude": 4.21419,
    "latitude": 51.5355,
    "street": "Zoekweg 1",
    "city": "4691HT THOLEN",
    "url": "tholense-boys",
    "logo": "",
    "tel": "",
    "tenue": "t_184.png"
  },
  {
    "code": "BBDZ17N",
    "name": "LMO",
    "longitude": 4.52928,
    "latitude": 51.8859,
    "street": "Smeetslandseweg 11",
    "city": "3079CR ROTTERDAM",
    "url": "lmo",
    "logo": "",
    "tel": "",
    "tenue": "t_423.png"
  },
  {
    "code": "BBGV38V",
    "name": "DHL",
    "longitude": 4.36965,
    "latitude": 52.03,
    "street": "Brasserskade 234",
    "city": "2616LA DELFT",
    "url": "dhl",
    "logo": "",
    "tel": "",
    "tenue": "t_42.png"
  },
  {
    "code": "BBDX32E",
    "name": "ALEXANDRIA66",
    "longitude": 4.56025,
    "latitude": 51.9379,
    "street": "Leningradweg 50",
    "city": "3066SH ROTTERDAM",
    "url": "alexandria66",
    "logo": "",
    "tel": "",
    "tenue": ""
  },
  {
    "code": "BBHZ66V",
    "name": "SOMEREN",
    "longitude": 5.72522,
    "latitude": 51.3735,
    "street": "Potakkerweg 21",
    "city": "5712AV SOMEREN",
    "url": "someren",
    "logo": "",
    "tel": "",
    "tenue": "t_303.png"
  },
  {
    "code": "BBJT82H",
    "name": "NEERBEEK RKVV",
    "longitude": 5.80711,
    "latitude": 50.9469,
    "street": "Bloote Weg 1",
    "city": "6191EM BEEK LB",
    "url": "neerbeek-rkvv",
    "logo": "",
    "tel": "",
    "tenue": "t_245.png"
  },
  {
    "code": "BBCY159",
    "name": "AGB",
    "longitude": 4.79871,
    "latitude": 52.3721,
    "street": "Abe Lenstralaan 6",
    "city": "1067MV AMSTERDAM",
    "url": "agb",
    "logo": "",
    "tel": "",
    "tenue": "t_68.png"
  },
  {
    "code": "BBDZ46V",
    "name": "SWIFT BOYS",
    "longitude": 4.53385,
    "latitude": 51.9354,
    "street": "Prinsenlaan 902",
    "city": "3062CT ROTTERDAM",
    "url": "swift-boys",
    "logo": "",
    "tel": "",
    "tenue": "t_866.png"
  },
  {
    "code": "BBKV10L",
    "name": "KZVV 75",
    "longitude": 5.91883,
    "latitude": 52.5386,
    "street": "Veneweg 1",
    "city": "8265VC KAMPEN",
    "url": "kzvv-75",
    "logo": "",
    "tel": "",
    "tenue": ""
  },
  {
    "code": "BBHW242",
    "name": "BLADELLA",
    "longitude": 5.21975,
    "latitude": 51.3582,
    "street": "Bossingel 7",
    "city": "5531NH BLADEL",
    "url": "bladella",
    "logo": "",
    "tel": "",
    "tenue": "t_263.png"
  },
  {
    "code": "BBGB88E",
    "name": "SZVV",
    "longitude": 4.95335,
    "latitude": 52.9038,
    "street": "Belterlaan 1",
    "city": "1777HM HIPPOLYTUSHOEF",
    "url": "szvv",
    "logo": "",
    "tel": "",
    "tenue": ""
  },
  {
    "code": "BBDD034",
    "name": "OLYMPIA HAARLEM",
    "longitude": 4.63823,
    "latitude": 52.3683,
    "street": "Henk van Turnhoutpad 1",
    "city": "2034JL HAARLEM",
    "url": "olympia-haarlem",
    "logo": "",
    "tel": "",
    "tenue": "t_1584.png"
  },
  {
    "code": "BBJF17X",
    "name": "PELIKAAN",
    "longitude": 4.61412,
    "latitude": 51.8301,
    "street": "Middellijn 9",
    "city": "3335KC ZWIJNDRECHT",
    "url": "pelikaan",
    "logo": "",
    "tel": "",
    "tenue": "t_287.png"
  },
  {
    "code": "BBKT03V",
    "name": "WZV/T WEURDEN",
    "longitude": 6.7348,
    "latitude": 51.9708,
    "street": "Hakkelerkampstraat 31",
    "city": "7101VG WINTERSWIJK",
    "url": "wzvt-weurden",
    "logo": "",
    "tel": "",
    "tenue": ""
  },
  {
    "code": "BBKY386",
    "name": "STICHTING GO AHEAD EAGLES",
    "longitude": 6.10259,
    "latitude": 52.2236,
    "street": "Zuiderlaan 5",
    "city": "7391TZ TWELLO",
    "url": "stichting-go-ahead-eagles",
    "logo": "",
    "tel": "",
    "tenue": ""
  },
  {
    "code": "BBJB18E",
    "name": "STEENSEL",
    "longitude": 5.35657,
    "latitude": 51.3796,
    "street": "Knegselseweg 1",
    "city": "5524AA STEENSEL",
    "url": "steensel",
    "logo": "",
    "tel": "",
    "tenue": "t_23.png"
  },
  {
    "code": "FMJL15U",
    "name": "FORUM SPORT",
    "longitude": 4.36138,
    "latitude": 52.0745,
    "street": "Prins Bernhardlaan 242",
    "city": "2273BP VOORBURG",
    "url": "forum-sport",
    "logo": "",
    "tel": "",
    "tenue": "t_75.png"
  },
  {
    "code": "BBBN32I",
    "name": "LEMSTERLAND DOCKSIDE",
    "longitude": 5.70649,
    "latitude": 52.8532,
    "street": "Betelgeuze 2",
    "city": "8531MV LEMMER",
    "url": "lemsterland-dockside",
    "logo": "",
    "tel": "",
    "tenue": ""
  },
  {
    "code": "BBHZ64T",
    "name": "NIEUW LEKKERLAND",
    "longitude": 4.66545,
    "latitude": 51.8838,
    "street": "Klipperstraat 18",
    "city": "2957EM NIEUW-LEKKERLAND",
    "url": "nieuw-lekkerland",
    "logo": "",
    "tel": "",
    "tenue": "t_22.png"
  },
  {
    "code": "BBBZ67O",
    "name": "MERINOS DE",
    "longitude": 5.57637,
    "latitude": 52.0084,
    "street": "Wageningselaan 5",
    "city": "3903LA VEENENDAAL",
    "url": "merinos-de",
    "logo": "",
    "tel": "",
    "tenue": "t_23.png"
  },
  {
    "code": "BBJW59U",
    "name": "FORTUNA SITTARD",
    "longitude": 5.88064,
    "latitude": 51.0099,
    "street": "Sportcentrumlaan 6",
    "city": "6136KX SITTARD",
    "url": "fortuna-sittard",
    "logo": "",
    "tel": "",
    "tenue": ""
  },
  {
    "code": "BBBF052",
    "name": "FC LEWENBORG",
    "longitude": 6.60721,
    "latitude": 53.2347,
    "street": "Kluiverboom 1",
    "city": "9732KZ GRONINGEN",
    "url": "fc-lewenborg",
    "logo": "",
    "tel": "",
    "tenue": "t_25.png"
  },
  {
    "code": "BBGV89D",
    "name": "TOOFAN",
    "longitude": 4.22111,
    "latitude": 52.0579,
    "street": "Wijndaelerweg 9",
    "city": "2554BZ 'S-GRAVENHAGE",
    "url": "toofan",
    "logo": "",
    "tel": "",
    "tenue": "t_625.png"
  },
  {
    "code": "BBBF65O",
    "name": "ZUIDHORN",
    "longitude": 6.39273,
    "latitude": 53.2492,
    "street": "Sportlaan 1",
    "city": "9801KZ ZUIDHORN",
    "url": "zuidhorn",
    "logo": "",
    "tel": "",
    "tenue": "t_22.png"
  },
  {
    "code": "BBJS80K",
    "name": "HEERLEN/IDB",
    "longitude": 5.97582,
    "latitude": 50.8982,
    "street": "Boerhaavestraat 36",
    "city": "6412VJ HEERLEN",
    "url": "heerlenidb",
    "logo": "",
    "tel": "",
    "tenue": "t_239.png"
  },
  {
    "code": "BBKW56Y",
    "name": "DE HOOIBERG",
    "longitude": 6.12181,
    "latitude": 52.336,
    "street": "Hooiberglaan 11",
    "city": "8121RA OLST",
    "url": "de-hooiberg",
    "logo": "",
    "tel": "",
    "tenue": ""
  },
  {
    "code": "LWNY225",
    "name": "HERACLES ALMELO",
    "longitude": 6.64982,
    "latitude": 52.3388,
    "street": "Stadionlaan 1",
    "city": "7606JZ ALMELO",
    "url": "heracles-almelo",
    "logo": "",
    "tel": "",
    "tenue": "t_136.png"
  },
  {
    "code": "BBJH157",
    "name": "BOXTEL",
    "longitude": 5.33276,
    "latitude": 51.5987,
    "street": "De Aanloop 29",
    "city": "5283TW BOXTEL",
    "url": "boxtel",
    "logo": "",
    "tel": "",
    "tenue": "t_21.png"
  },
  {
    "code": "BBCY50Q",
    "name": "GIRAM  ASV",
    "longitude": 4.87953,
    "latitude": 52.2902,
    "street": "Langs de Akker 3",
    "city": "1186DA AMSTELVEEN",
    "url": "giram-asv",
    "logo": "",
    "tel": "",
    "tenue": "t_41.png"
  },
  {
    "code": "BBFY58B",
    "name": "ALBATROS",
    "longitude": 4.76754,
    "latitude": 52.6435,
    "street": "Hertog Aalbrechtweg 4",
    "city": "1823DL ALKMAAR",
    "url": "albatros",
    "logo": "",
    "tel": "",
    "tenue": ""
  },
  {
    "code": "BBBF71N",
    "name": "TERSCHELLING",
    "longitude": 5.2838,
    "latitude": 53.3838,
    "street": "Kallandspad 1",
    "city": "8891GS TERSCHELLING MIDSLAND",
    "url": "terschelling",
    "logo": "",
    "tel": "",
    "tenue": ""
  },
  {
    "code": "BBKY65C",
    "name": "OBW",
    "longitude": 6.08896,
    "latitude": 51.9343,
    "street": "Ingang Marconistraat 1",
    "city": "6902PA ZEVENAAR",
    "url": "obw",
    "logo": "",
    "tel": "",
    "tenue": "t_23.png"
  },
  {
    "code": "BBDB49G",
    "name": "DIEMEN  SV",
    "longitude": 4.97866,
    "latitude": 52.3386,
    "street": "Sportlaan 13",
    "city": "1111PX DIEMEN",
    "url": "diemen-sv",
    "logo": "",
    "tel": "",
    "tenue": "t_263.png"
  },
  {
    "code": "BBHY93W",
    "name": "SCR",
    "longitude": 5.3601,
    "latitude": 51.9567,
    "street": "Langsstraat 5",
    "city": "4023AE RIJSWIJK GLD",
    "url": "scr",
    "logo": "",
    "tel": "",
    "tenue": ""
  },
  {
    "code": "BBKR293",
    "name": "LUCTOR ET EMERGO",
    "longitude": 6.66849,
    "latitude": 52.3707,
    "street": "Horstlaan 3",
    "city": "7602AM ALMELO",
    "url": "luctor-et-emergo",
    "logo": "",
    "tel": "",
    "tenue": "t_200.png"
  },
  {
    "code": "BBKT94T",
    "name": "ZVO/SCHUTTE INFORMATISERING",
    "longitude": 6.41958,
    "latitude": 52.5255,
    "street": "Chevalleraustraat 8",
    "city": "7731EE OMMEN",
    "url": "zvoschutte-informatisering",
    "logo": "",
    "tel": "",
    "tenue": ""
  },
  {
    "code": "BBKY467",
    "name": "WIJTHMEN",
    "longitude": 6.16645,
    "latitude": 52.4929,
    "street": "Erfgenamenweg 14",
    "city": "8026PS ZWOLLE",
    "url": "wijthmen",
    "logo": "",
    "tel": "",
    "tenue": "t_21.png"
  },
  {
    "code": "BBJJ027",
    "name": "SBV",
    "longitude": 5.58521,
    "latitude": 51.8084,
    "street": "Lietingstraat 58",
    "city": "5368AC HAREN NB",
    "url": "sbv",
    "logo": "",
    "tel": "",
    "tenue": ""
  },
  {
    "code": "BBKV048",
    "name": "UNI VV",
    "longitude": 5.86773,
    "latitude": 51.8185,
    "street": "Heyendaalseweg 141",
    "city": "6525AJ NIJMEGEN",
    "url": "uni-vv",
    "logo": "",
    "tel": "",
    "tenue": "t_181.png"
  },
  {
    "code": "BBFC44U",
    "name": "SIVEO 60",
    "longitude": 4.84669,
    "latitude": 52.1207,
    "street": "Milandweg 31",
    "city": "3474KK ZEGVELD",
    "url": "siveo-60",
    "logo": "",
    "tel": "",
    "tenue": "t_48.png"
  },
  {
    "code": "BBJG185",
    "name": "WSJ",
    "longitude": 5.10574,
    "latitude": 51.5773,
    "street": "Centaurusweg 80",
    "city": "5015TA TILBURG",
    "url": "wsj",
    "logo": "",
    "tel": "",
    "tenue": "t_23.png"
  },
  {
    "code": "BBFW46U",
    "name": "KOLPING BOYS",
    "longitude": 4.77994,
    "latitude": 52.64,
    "street": "Beverdam 3",
    "city": "1822AA ALKMAAR",
    "url": "kolping-boys",
    "logo": "",
    "tel": "",
    "tenue": "t_745.png"
  },
  {
    "code": "BBJV16A",
    "name": "NEC92",
    "longitude": 5.96217,
    "latitude": 50.9232,
    "street": "Schrieversheideweg 1",
    "city": "6414RJ HEERLEN",
    "url": "nec92",
    "logo": "",
    "tel": "",
    "tenue": ""
  },
  {
    "code": "BBBJ19X",
    "name": "MSC",
    "longitude": 6.20296,
    "latitude": 52.6912,
    "street": "Ambachtsweg 11",
    "city": "7943AE MEPPEL",
    "url": "msc",
    "logo": "",
    "tel": "",
    "tenue": "t_136.png"
  },
  {
    "code": "BBBG49R",
    "name": "WESTERWOLDE",
    "longitude": 7.11376,
    "latitude": 53.0368,
    "street": "Spetsebrugweg 1",
    "city": "9541XV VLAGTWEDDE",
    "url": "westerwolde",
    "logo": "",
    "tel": "",
    "tenue": "t_1.png"
  },
  {
    "code": "BBBF60T",
    "name": "FC MEPPEL",
    "longitude": 6.20296,
    "latitude": 52.6912,
    "street": "Ambachtsweg 11",
    "city": "7943AE MEPPEL",
    "url": "fc-meppel",
    "logo": "",
    "tel": "",
    "tenue": "t_82.png"
  },
  {
    "code": "FMPD446",
    "name": "TELEGRAAF SPORT VERENIGING",
    "longitude": 4.87953,
    "latitude": 52.2902,
    "street": "Langs de Akker 3",
    "city": "1186DA AMSTELVEEN",
    "url": "telegraaf-sport-vereniging",
    "logo": "",
    "tel": "",
    "tenue": ""
  },
  {
    "code": "BBJK31O",
    "name": "BOTAFOGO",
    "longitude": 5.50087,
    "latitude": 51.4745,
    "street": "Weegschaalstraat 1",
    "city": "5632CW EINDHOVEN",
    "url": "botafogo",
    "logo": "",
    "tel": "",
    "tenue": ""
  },
  {
    "code": "BBBC36Z",
    "name": "FVC",
    "longitude": 5.82296,
    "latitude": 53.1768,
    "street": "Ublingaplantage 4",
    "city": "8939EZ LEEUWARDEN",
    "url": "fvc",
    "logo": "",
    "tel": "",
    "tenue": "t_788.png"
  },
  {
    "code": "BBCZ78Z",
    "name": "BOELE BOYS",
    "longitude": 4.85432,
    "latitude": 52.3399,
    "street": "Burgerweeshuispad 54",
    "city": "1076EP AMSTERDAM",
    "url": "boele-boys",
    "logo": "",
    "tel": "",
    "tenue": ""
  },
  {
    "code": "BBHZ11B",
    "name": "TERNEUZEN",
    "longitude": 3.84401,
    "latitude": 51.3271,
    "street": "Zuiderparklaan 21",
    "city": "4532LS TERNEUZEN",
    "url": "terneuzen",
    "logo": "",
    "tel": "",
    "tenue": "t_181.png"
  },
  {
    "code": "BBJT469",
    "name": "PASSART",
    "longitude": 5.9412,
    "latitude": 50.9219,
    "street": "Demstraat 11",
    "city": "6431TC HOENSBROEK",
    "url": "passart",
    "logo": "",
    "tel": "",
    "tenue": "t_827.png"
  },
  {
    "code": "BBCC38A",
    "name": "JSV NIEUWEGEIN",
    "longitude": 5.09096,
    "latitude": 52.0564,
    "street": "Sportpark Galecop 1",
    "city": "3438HX NIEUWEGEIN",
    "url": "jsv-nieuwegein",
    "logo": "",
    "tel": "",
    "tenue": "t_156.png"
  },
  {
    "code": "FRYZ49Z",
    "name": "ZVV LANDGRAAF",
    "longitude": 6.03458,
    "latitude": 50.9113,
    "street": "Emmastraat 1",
    "city": "6373HM LANDGRAAF",
    "url": "zvv-landgraaf",
    "logo": "",
    "tel": "",
    "tenue": ""
  },
  {
    "code": "BBKZ163",
    "name": "SPORTCLUB OLYMPIC",
    "longitude": 6.02428,
    "latitude": 51.948,
    "street": "Kastanjelaan 7",
    "city": "6921ER DUIVEN",
    "url": "sportclub-olympic",
    "logo": "",
    "tel": "",
    "tenue": ""
  },
  {
    "code": "FVFP937",
    "name": "BOZV/AUTOBEDRIJF HAISCH",
    "longitude": 4.28546,
    "latitude": 51.5038,
    "street": "Florastraat 90",
    "city": "4613CT BERGEN OP ZOOM",
    "url": "bozvautobedrijf-haisch",
    "logo": "",
    "tel": "",
    "tenue": ""
  },
  {
    "code": "BBFB32K",
    "name": "NIEUWENHOORN",
    "longitude": 4.13966,
    "latitude": 51.8527,
    "street": "Rijksstraatweg 270",
    "city": "3223KE HELLEVOETSLUIS",
    "url": "nieuwenhoorn",
    "logo": "",
    "tel": "",
    "tenue": "t_671.png"
  },
  {
    "code": "BBKV27L",
    "name": "EDON",
    "longitude": 6.1249,
    "latitude": 52.5027,
    "street": "Weteringkade 1",
    "city": "8013PB ZWOLLE",
    "url": "edon",
    "logo": "",
    "tel": "",
    "tenue": "t_883.png"
  },
  {
    "code": "BBHZ37N",
    "name": "VEERE",
    "longitude": 3.65006,
    "latitude": 51.5406,
    "street": "Bieweg 3",
    "city": "4351SK VEERE",
    "url": "veere",
    "logo": "",
    "tel": "",
    "tenue": "t_116.png"
  },
  {
    "code": "BBKY84H",
    "name": "SCHOOF",
    "longitude": 5.87897,
    "latitude": 52.0017,
    "street": "Bakenbergseweg 256 B",
    "city": "6816PC ARNHEM",
    "url": "schoof",
    "logo": "",
    "tel": "",
    "tenue": ""
  },
  {
    "code": "BBKV956",
    "name": "SVI",
    "longitude": 6.11858,
    "latitude": 52.4781,
    "street": "IJsselcentraleweg 9",
    "city": "8014BK ZWOLLE",
    "url": "svi",
    "logo": "",
    "tel": "",
    "tenue": "t_95.png"
  },
  {
    "code": "BBJK13K",
    "name": "WZVV/DE GOUDEN LEEUW",
    "longitude": 5.3959,
    "latitude": 51.336,
    "street": "Koolakkers 5",
    "city": "5563AV WESTERHOVEN",
    "url": "wzvvde-gouden-leeuw",
    "logo": "",
    "tel": "",
    "tenue": ""
  },
  {
    "code": "BBHV443",
    "name": "DEN HOEK",
    "longitude": 5.40028,
    "latitude": 51.3993,
    "street": "Heerseweg 49",
    "city": "5504KP VELDHOVEN",
    "url": "den-hoek",
    "logo": "",
    "tel": "",
    "tenue": ""
  },
  {
    "code": "BBJL15R",
    "name": "TROY/IDEAL CAR RENT",
    "longitude": 4.28546,
    "latitude": 51.5038,
    "street": "Florastraat 90",
    "city": "4613CT BERGEN OP ZOOM",
    "url": "troyideal-car-rent",
    "logo": "",
    "tel": "",
    "tenue": ""
  },
  {
    "code": "BBKW71Z",
    "name": "OZC",
    "longitude": 6.43766,
    "latitude": 52.538,
    "street": "Sportlaan 2",
    "city": "7735KX ARRIEN",
    "url": "ozc",
    "logo": "",
    "tel": "",
    "tenue": ""
  },
  {
    "code": "BBFX23Q",
    "name": "VOLENDAM (RKAV)",
    "longitude": 5.06339,
    "latitude": 52.4925,
    "street": "Julianaweg 3A",
    "city": "1131CX VOLENDAM",
    "url": "volendam-rkav",
    "logo": "",
    "tel": "",
    "tenue": "t_245.png"
  },
  {
    "code": "BBGY64H",
    "name": "GOL SPORT",
    "longitude": 4.47561,
    "latitude": 52.1539,
    "street": "Boshuizerkade 1",
    "city": "2321TS LEIDEN",
    "url": "gol-sport",
    "logo": "",
    "tel": "",
    "tenue": "t_262.png"
  },
  {
    "code": "LWNR78P",
    "name": "DE GRAAFSCHAP",
    "longitude": 6.30998,
    "latitude": 51.9551,
    "street": "Lijsterbeslaan 101 A",
    "city": "7004GN DOETINCHEM",
    "url": "de-graafschap",
    "logo": "",
    "tel": "",
    "tenue": ""
  },
  {
    "code": "BBDB39D",
    "name": "SIZO VV",
    "longitude": 4.58459,
    "latitude": 52.304,
    "street": "Weeresteinstraat 182",
    "city": "2181GD HILLEGOM",
    "url": "sizo-vv",
    "logo": "",
    "tel": "",
    "tenue": "t_245.png"
  },
  {
    "code": "BBDZ685",
    "name": "DONK",
    "longitude": 4.70979,
    "latitude": 52.0139,
    "street": "Nieuwe Donkstraat 1",
    "city": "2809NJ GOUDA",
    "url": "donk",
    "logo": "",
    "tel": "",
    "tenue": "t_685.png"
  },
  {
    "code": "MJGB25K",
    "name": "ESPERANZA",
    "longitude": 4.57211,
    "latitude": 51.9644,
    "street": "Zevenkampse Ring 301",
    "city": "3068HG ROTTERDAM",
    "url": "esperanza",
    "logo": "",
    "tel": "",
    "tenue": ""
  },
  {
    "code": "BBDB12Y",
    "name": "FARREGAT T",
    "longitude": 4.79494,
    "latitude": 52.2714,
    "street": "Hornweg 187",
    "city": "1432GH AALSMEER",
    "url": "farregat-t",
    "logo": "",
    "tel": "",
    "tenue": ""
  },
  {
    "code": "BBGY51B",
    "name": "SATER",
    "longitude": 4.3475,
    "latitude": 51.9963,
    "street": "Duke Ellingtonstraat 2",
    "city": "2625GB DELFT",
    "url": "sater",
    "logo": "",
    "tel": "",
    "tenue": ""
  },
  {
    "code": "BBBG50V",
    "name": "WKE",
    "longitude": 6.86248,
    "latitude": 52.798,
    "street": "Sluisvierweg 15",
    "city": "7814XC EMMEN",
    "url": "wke",
    "logo": "",
    "tel": "",
    "tenue": "t_25.png"
  },
  {
    "code": "BBCC89Q",
    "name": "VVZ 49",
    "longitude": 5.31503,
    "latitude": 52.1754,
    "street": "Eemweg 1",
    "city": "3764DG SOEST",
    "url": "vvz-49",
    "logo": "",
    "tel": "",
    "tenue": "t_22.png"
  },
  {
    "code": "BBJV33D",
    "name": "HEERLEN SPORT",
    "longitude": 6.00378,
    "latitude": 50.8781,
    "street": "Stadionbaan 38",
    "city": "6416CS HEERLEN",
    "url": "heerlen-sport",
    "logo": "",
    "tel": "",
    "tenue": ""
  },
  {
    "code": "BBDZ52U",
    "name": "FLOREANT",
    "longitude": 4.63382,
    "latitude": 52.076,
    "street": "Hoogeveenseweg 1",
    "city": "2771TA BOSKOOP",
    "url": "floreant",
    "logo": "",
    "tel": "",
    "tenue": "t_621.png"
  },
  {
    "code": "BBCY28F",
    "name": "GEUZENMIDDENMEER",
    "longitude": 4.954,
    "latitude": 52.3479,
    "street": "Voorlandpad 15",
    "city": "1098TZ AMSTERDAM",
    "url": "geuzenmiddenmeer",
    "logo": "",
    "tel": "",
    "tenue": "t_181.png"
  },
  {
    "code": "BBJD29S",
    "name": "THE GUNNERS",
    "longitude": 4.73977,
    "latitude": 51.6031,
    "street": "Wikketuin 15 A",
    "city": "4824PN BREDA",
    "url": "the-gunners",
    "logo": "",
    "tel": "",
    "tenue": "t_43.png"
  },
  {
    "code": "LWNR86Q",
    "name": "SC HEERENVEEN",
    "longitude": 5.93519,
    "latitude": 52.9583,
    "street": "Abe Lenstra boulevard 19",
    "city": "8448JA HEERENVEEN",
    "url": "sc-heerenveen",
    "logo": "",
    "tel": "",
    "tenue": "t_87.png"
  },
  {
    "code": "BBCC184",
    "name": "ALTIUS",
    "longitude": 5.1303,
    "latitude": 52.2238,
    "street": "Kininelaantje 6-7",
    "city": "1216BZ HILVERSUM",
    "url": "altius",
    "logo": "",
    "tel": "",
    "tenue": "t_245.png"
  },
  {
    "code": "BBCC298",
    "name": "BLOEMENKWARTIER",
    "longitude": 5.12679,
    "latitude": 52.213,
    "street": "'t Jagerspaadje 30",
    "city": "1231KJ LOOSDRECHT",
    "url": "bloemenkwartier",
    "logo": "",
    "tel": "",
    "tenue": ""
  },
  {
    "code": "BBBG43L",
    "name": "DWS OOSTERPOORT",
    "longitude": 6.50753,
    "latitude": 53.2086,
    "street": "Zuiderweg 70",
    "city": "9744AP GRONINGEN",
    "url": "dws-oosterpoort",
    "logo": "",
    "tel": "",
    "tenue": ""
  },
  {
    "code": "BBJW954",
    "name": "SPORTCLUB SUSTEREN",
    "longitude": 5.845,
    "latitude": 51.0702,
    "street": "Maaseikerweg 2",
    "city": "6114JP SUSTEREN",
    "url": "sportclub-susteren",
    "logo": "",
    "tel": "",
    "tenue": "t_22.png"
  },
  {
    "code": "LWNS229",
    "name": "RBC ROOSENDAAL",
    "longitude": 4.45403,
    "latitude": 51.5413,
    "street": "Borchwerf 4",
    "city": "4704RG ROOSENDAAL",
    "url": "rbc-roosendaal",
    "logo": "",
    "tel": "",
    "tenue": ""
  },
  {
    "code": "BBKV34L",
    "name": "ASC 62",
    "longitude": 6.26736,
    "latitude": 52.5185,
    "street": "Haersolteweg 10",
    "city": "7722SE DALFSEN",
    "url": "asc-62",
    "logo": "",
    "tel": "",
    "tenue": "t_43.png"
  },
  {
    "code": "BBKT97W",
    "name": "HOLTEN",
    "longitude": 6.43728,
    "latitude": 52.2875,
    "street": "Valkenweg 4",
    "city": "7451HN HOLTEN",
    "url": "holten",
    "logo": "",
    "tel": "",
    "tenue": "t_241.png"
  },
  {
    "code": "BBDY912",
    "name": "HARGASPORT",
    "longitude": 4.3762,
    "latitude": 51.9232,
    "street": "Sportlaan 8",
    "city": "3118JC SCHIEDAM",
    "url": "hargasport",
    "logo": "",
    "tel": "",
    "tenue": "t_115.png"
  },
  {
    "code": "BBCB07P",
    "name": "CJVV",
    "longitude": 5.3985,
    "latitude": 52.1466,
    "street": "Gasthuislaan 70",
    "city": "3817EP AMERSFOORT",
    "url": "cjvv",
    "logo": "",
    "tel": "",
    "tenue": "t_244.png"
  },
  {
    "code": "BBCZ45N",
    "name": "ALMERE CITY FC",
    "longitude": 5.24066,
    "latitude": 52.3935,
    "street": "Competitieweg 22",
    "city": "1318EA ALMERE",
    "url": "almere-city-fc",
    "logo": "",
    "tel": "",
    "tenue": ""
  },
  {
    "code": "BBKV18J",
    "name": "TURKSE KRACHT",
    "longitude": 6.19653,
    "latitude": 52.262,
    "street": "Nico Bolkesteinlaan 16",
    "city": "7416SG DEVENTER",
    "url": "turkse-kracht",
    "logo": "",
    "tel": "",
    "tenue": "t_41.png"
  },
  {
    "code": "BBHT24L",
    "name": "RHODE",
    "longitude": 5.45744,
    "latitude": 51.5663,
    "street": "Dommelpark 3",
    "city": "5492DD SINT-OEDENRODE",
    "url": "rhode",
    "logo": "",
    "tel": "",
    "tenue": ""
  },
  {
    "code": "FJMG83C",
    "name": "RZV GRAVE",
    "longitude": 5.84834,
    "latitude": 51.0074,
    "street": "Bradleystraat 25",
    "city": "6135CV SITTARD",
    "url": "rzv-grave",
    "logo": "",
    "tel": "",
    "tenue": ""
  },
  {
    "code": "BBFC56Z",
    "name": "OMMOORD, SV",
    "longitude": 4.55993,
    "latitude": 51.957,
    "street": "Heidekruid 5",
    "city": "3068RT ROTTERDAM",
    "url": "ommoord-sv",
    "logo": "",
    "tel": "",
    "tenue": "t_252.png"
  },
  {
    "code": "BBJD01A",
    "name": "UNITAS59",
    "longitude": 5.50237,
    "latitude": 51.4859,
    "street": "Anconalaan 1",
    "city": "5633BJ EINDHOVEN",
    "url": "unitas59",
    "logo": "",
    "tel": "",
    "tenue": ""
  },
  {
    "code": "FRKT97M",
    "name": "SPALAND, SC",
    "longitude": 4.37937,
    "latitude": 51.9329,
    "street": "Schiedamseweg 87",
    "city": "3121JG SCHIEDAM",
    "url": "spaland-sc",
    "logo": "",
    "tel": "",
    "tenue": ""
  },
  {
    "code": "FWDN082",
    "name": "ROOD GROEN LVC01",
    "longitude": 5.99576,
    "latitude": 50.7801,
    "street": "Oude Akerweg 153",
    "city": "6291DB VAALS",
    "url": "rood-groen-lvc01",
    "logo": "",
    "tel": "",
    "tenue": "t_311.png"
  },
  {
    "code": "BBKS46B",
    "name": "QUICK 1888",
    "longitude": 5.8236,
    "latitude": 51.8313,
    "street": "Dennenstraat 25",
    "city": "6543JP NIJMEGEN",
    "url": "quick-1888",
    "logo": "",
    "tel": "",
    "tenue": "t_181.png"
  },
  {
    "code": "BBCB76F",
    "name": "KORTENHOEF94",
    "longitude": 5.11617,
    "latitude": 52.2363,
    "street": "Zuidsingel 54",
    "city": "1241HD KORTENHOEF",
    "url": "kortenhoef94",
    "logo": "",
    "tel": "",
    "tenue": ""
  },
  {
    "code": "BBKV68Y",
    "name": "SKV",
    "longitude": 5.69369,
    "latitude": 51.9787,
    "street": "Zoomweg 4",
    "city": "6704PE WAGENINGEN",
    "url": "skv",
    "logo": "",
    "tel": "",
    "tenue": "t_23.png"
  },
  {
    "code": "BBKR84G",
    "name": "GO AHEAD KAMPEN",
    "longitude": 5.89165,
    "latitude": 52.5495,
    "street": "Buitenbroeksweg 2",
    "city": "8265PH KAMPEN",
    "url": "go-ahead-kampen",
    "logo": "",
    "tel": "",
    "tenue": "t_53.png"
  },
  {
    "code": "MMBL72C",
    "name": "JONG AALSMEER UNITED",
    "longitude": 4.7719,
    "latitude": 52.2542,
    "street": "Beethovenlaan 120",
    "city": "1431WZ AALSMEER",
    "url": "jong-aalsmeer-united",
    "logo": "",
    "tel": "",
    "tenue": ""
  },
  {
    "code": "BBKS519",
    "name": "CUPA",
    "longitude": 6.13025,
    "latitude": 52.1998,
    "street": "Baron van Wijnbergenlaan 12",
    "city": "7383AE VOORST GEM VOORST",
    "url": "cupa",
    "logo": "",
    "tel": "",
    "tenue": ""
  },
  {
    "code": "BBDY989",
    "name": "STEEDS HOOGER",
    "longitude": 4.44328,
    "latitude": 51.9317,
    "street": "Kanaalweg 84",
    "city": "3041JE ROTTERDAM",
    "url": "steeds-hooger",
    "logo": "",
    "tel": "",
    "tenue": "t_116.png"
  },
  {
    "code": "BBBZ84R",
    "name": "OSO",
    "longitude": 5.13001,
    "latitude": 52.211,
    "street": "'t Jagerspaadje 26",
    "city": "1231KJ LOOSDRECHT",
    "url": "oso",
    "logo": "",
    "tel": "",
    "tenue": "t_41.png"
  },
  {
    "code": "BBGX56B",
    "name": "UVS",
    "longitude": 4.48686,
    "latitude": 52.1738,
    "street": "Oegstgeesterweg 1",
    "city": "2334BZ LEIDEN",
    "url": "uvs",
    "logo": "",
    "tel": "",
    "tenue": "t_83.png"
  },
  {
    "code": "BBBN24H",
    "name": "HELPMAN",
    "longitude": 6.58845,
    "latitude": 53.1859,
    "street": "Rijksstraatweg 14",
    "city": "9752AD HAREN GN",
    "url": "helpman",
    "logo": "",
    "tel": "",
    "tenue": ""
  },
  {
    "code": "LWMZ153",
    "name": "AFC AJAX",
    "longitude": 4.94062,
    "latitude": 52.3139,
    "street": "Arena boulevard 29",
    "city": "1101AX AMSTERDAM ZUIDOOST",
    "url": "afc-ajax",
    "logo": "",
    "tel": "",
    "tenue": ""
  },
  {
    "code": "BBJG222",
    "name": "ZWALUW VFC",
    "longitude": 5.27432,
    "latitude": 51.6325,
    "street": "De Kikvorsch 5",
    "city": "5262LX VUGHT",
    "url": "zwaluw-vfc",
    "logo": "",
    "tel": "",
    "tenue": "t_41.png"
  },
  {
    "code": "BBKT92R",
    "name": "DUNO D",
    "longitude": 5.78931,
    "latitude": 51.9765,
    "street": "W A Scholtenlaan 138",
    "city": "6865NA DOORWERTH",
    "url": "duno-d",
    "logo": "",
    "tel": "",
    "tenue": "t_23.png"
  },
  {
    "code": "BBJK918",
    "name": "RPC",
    "longitude": 5.4824,
    "latitude": 51.4124,
    "street": "Aalsterweg 314",
    "city": "5644RL EINDHOVEN",
    "url": "rpc",
    "logo": "",
    "tel": "",
    "tenue": "t_322.png"
  },
  {
    "code": "BBJK52V",
    "name": "GROEN WIT",
    "longitude": 4.74381,
    "latitude": 51.5743,
    "street": "Postillonstraat 2",
    "city": "4813EW BREDA",
    "url": "groen-wit",
    "logo": "",
    "tel": "",
    "tenue": "t_744.png"
  },
  {
    "code": "BBCY31B",
    "name": "DCG RKSV",
    "longitude": 4.79667,
    "latitude": 52.3704,
    "street": "Han Hollanderlaan 12",
    "city": "1067BB AMSTERDAM",
    "url": "dcg-rksv",
    "logo": "",
    "tel": "",
    "tenue": "t_644.png"
  },
  {
    "code": "BBKR90P",
    "name": "FC GONEMO/REDOX",
    "longitude": 6.7348,
    "latitude": 51.9708,
    "street": "Hakkelerkampstraat 31",
    "city": "7101VG WINTERSWIJK",
    "url": "fc-gonemoredox",
    "logo": "",
    "tel": "",
    "tenue": ""
  },
  {
    "code": "BBCC265",
    "name": "BARNEVELD",
    "longitude": 5.56771,
    "latitude": 52.1468,
    "street": "Thorbeckelaan 111",
    "city": "3771ED BARNEVELD",
    "url": "barneveld",
    "logo": "",
    "tel": "",
    "tenue": "t_48.png"
  },
  {
    "code": "BBHW297",
    "name": "FCK/DE HOMMEL",
    "longitude": 5.31551,
    "latitude": 51.7222,
    "street": "Marathonloop 1",
    "city": "5235AA 'S-HERTOGENBOSCH",
    "url": "fckde-hommel",
    "logo": "",
    "tel": "",
    "tenue": ""
  },
  {
    "code": "BBKV13E",
    "name": "EENDRACHT ARNHEM",
    "longitude": 5.96996,
    "latitude": 51.9804,
    "street": "Doorwerthlaan 6",
    "city": "6825EX ARNHEM",
    "url": "eendracht-arnhem",
    "logo": "",
    "tel": "",
    "tenue": ""
  },
  {
    "code": "BBHW94N",
    "name": "IFCV/KARELTJE CARLO DESIGN",
    "longitude": 5.3959,
    "latitude": 51.336,
    "street": "Koolakkers 5",
    "city": "5563AV WESTERHOVEN",
    "url": "ifcvkareltje-carlo-design",
    "logo": "",
    "tel": "",
    "tenue": ""
  },
  {
    "code": "BBBF45I",
    "name": "EMMEN",
    "longitude": 6.94723,
    "latitude": 52.7754,
    "street": "Ullevi 14",
    "city": "7825SE EMMEN",
    "url": "emmen",
    "logo": "",
    "tel": "",
    "tenue": ""
  },
  {
    "code": "MMDV92E",
    "name": "RVO FC GRONINGEN/CAMBUUR",
    "longitude": 6.55384,
    "latitude": 53.1938,
    "street": "Laan Corpus den Hoorn 102",
    "city": "9728JR GRONINGEN",
    "url": "rvo-fc-groningencambuur",
    "logo": "",
    "tel": "",
    "tenue": ""
  },
  {
    "code": "BBJL04J",
    "name": "HOF VAN BRABANT",
    "longitude": 5.39121,
    "latitude": 51.4282,
    "street": "De Dom 9",
    "city": "5508GE VELDHOVEN",
    "url": "hof-van-brabant",
    "logo": "",
    "tel": "",
    "tenue": ""
  },
  {
    "code": "BBFZ04R",
    "name": "DEMI SPORT",
    "longitude": 4.66885,
    "latitude": 52.4919,
    "street": "Hoflanderweg 188",
    "city": "1945ZH BEVERWIJK",
    "url": "demi-sport",
    "logo": "",
    "tel": "",
    "tenue": ""
  },
  {
    "code": "BBFW24M",
    "name": "EVC",
    "longitude": 5.0587,
    "latitude": 52.5127,
    "street": "Keetzijde 20",
    "city": "1135VX EDAM",
    "url": "evc",
    "logo": "",
    "tel": "",
    "tenue": "t_623.png"
  },
  {
    "code": "BBJS76D",
    "name": "SPORTCLUB CABERG",
    "longitude": 5.66395,
    "latitude": 50.8609,
    "street": "Widelanken 1",
    "city": "6217CL MAASTRICHT",
    "url": "sportclub-caberg",
    "logo": "",
    "tel": "",
    "tenue": ""
  },
  {
    "code": "BBKT75O",
    "name": "DE TUBANTERS 1897",
    "longitude": 6.90825,
    "latitude": 52.2068,
    "street": "Olympialaan 20",
    "city": "7541BK ENSCHEDE",
    "url": "de-tubanters-1897",
    "logo": "",
    "tel": "",
    "tenue": "t_223.png"
  },
  {
    "code": "BBJD33P",
    "name": "DE VALK",
    "longitude": 5.47533,
    "latitude": 51.3536,
    "street": "Bosstraat 85",
    "city": "5555JA VALKENSWAARD",
    "url": "de-valk",
    "logo": "",
    "tel": "",
    "tenue": "t_224.png"
  },
  {
    "code": "BBDY32J",
    "name": "ROHDA 76",
    "longitude": 4.75116,
    "latitude": 52.0719,
    "street": "Broekveldselaan 2",
    "city": "2411NL BODEGRAVEN",
    "url": "rohda-76",
    "logo": "",
    "tel": "",
    "tenue": "t_23.png"
  },
  {
    "code": "BBBZ64L",
    "name": "UNICUM",
    "longitude": 5.46431,
    "latitude": 52.5111,
    "street": "Schouw 54-01",
    "city": "8232XK LELYSTAD",
    "url": "unicum",
    "logo": "",
    "tel": "",
    "tenue": ""
  },
  {
    "code": "MHXR78B",
    "name": "SV REESHOF",
    "longitude": 5.00252,
    "latitude": 51.5726,
    "street": "Kronenbergstraat 10",
    "city": "5045NC TILBURG",
    "url": "sv-reeshof",
    "logo": "",
    "tel": "",
    "tenue": "t_252.png"
  },
  {
    "code": "GBTC852",
    "name": "XING FUTSAL",
    "longitude": 6.58576,
    "latitude": 53.018,
    "street": "Kleuvenstee 3",
    "city": "9403LT ASSEN",
    "url": "xing-futsal",
    "logo": "",
    "tel": "",
    "tenue": ""
  },
  {
    "code": "BBCC01O",
    "name": "DENNIS BOYS",
    "longitude": 5.06129,
    "latitude": 52.0922,
    "street": "Maartvlinder 11",
    "city": "3544DA UTRECHT",
    "url": "dennis-boys",
    "logo": "",
    "tel": "",
    "tenue": ""
  },
  {
    "code": "BBBN31H",
    "name": "LEEK-RODENBURG",
    "longitude": 6.37165,
    "latitude": 53.1704,
    "street": "Rodenburg 6",
    "city": "9351PV LEEK",
    "url": "leekrodenburg",
    "logo": "",
    "tel": "",
    "tenue": ""
  },
  {
    "code": "BBGZ52H",
    "name": "KATWIJK",
    "longitude": 4.43058,
    "latitude": 52.2098,
    "street": "De Krom 57",
    "city": "2221KK KATWIJK ZH",
    "url": "katwijk",
    "logo": "",
    "tel": "",
    "tenue": ""
  },
  {
    "code": "BBJS05L",
    "name": "ALMANIA",
    "longitude": 5.88838,
    "latitude": 50.9975,
    "street": "Bachstraat 1",
    "city": "6137RX SITTARD",
    "url": "almania",
    "logo": "",
    "tel": "",
    "tenue": ""
  },
  {
    "code": "BBDX59R",
    "name": "JODAN BOYS, DE",
    "longitude": 4.73345,
    "latitude": 52.0099,
    "street": "Sportlaan 8",
    "city": "2806HC GOUDA",
    "url": "jodan-boys-de",
    "logo": "",
    "tel": "",
    "tenue": "t_16.png"
  },
  {
    "code": "FRYY64V",
    "name": "DE HAZENDANS",
    "longitude": 5.6517,
    "latitude": 50.8473,
    "street": "Veldwezeltstraat 80",
    "city": "6215JC MAASTRICHT",
    "url": "de-hazendans",
    "logo": "",
    "tel": "",
    "tenue": ""
  },
  {
    "code": "BBFZ78M",
    "name": "PURMEREND",
    "longitude": 4.93107,
    "latitude": 52.5022,
    "street": "Savannestraat 51 -53",
    "city": "1448WB PURMEREND",
    "url": "purmerend",
    "logo": "",
    "tel": "",
    "tenue": ""
  },
  {
    "code": "FJQK71L",
    "name": "VOLHARDING/BOUWHEER",
    "longitude": 5.14337,
    "latitude": 52.2135,
    "street": "Franciscusweg 6A",
    "city": "1216SK HILVERSUM",
    "url": "volhardingbouwheer",
    "logo": "",
    "tel": "",
    "tenue": ""
  },
  {
    "code": "FZPD90Y",
    "name": "DE SCHOEN/VISION UNLIMITED",
    "longitude": 5.40028,
    "latitude": 51.3993,
    "street": "Heerseweg 49",
    "city": "5504KP VELDHOVEN",
    "url": "de-schoenvision-unlimited",
    "logo": "",
    "tel": "",
    "tenue": ""
  },
  {
    "code": "BBGW94G",
    "name": "ASC",
    "longitude": 4.47152,
    "latitude": 52.1784,
    "street": "Duivenvoordestraat 1",
    "city": "2341JE OEGSTGEEST",
    "url": "asc",
    "logo": "",
    "tel": "",
    "tenue": "t_181.png"
  },
  {
    "code": "MFFS21G",
    "name": "AGE",
    "longitude": 4.44551,
    "latitude": 51.9465,
    "street": "Vd Duijn van Maasdamweg 601",
    "city": "3045PE ROTTERDAM",
    "url": "age",
    "logo": "",
    "tel": "",
    "tenue": "t_1282.png"
  },
  {
    "code": "BBGW26V",
    "name": "VITESSE DELFT",
    "longitude": 4.36847,
    "latitude": 51.9787,
    "street": "Henk van Riessenlaan 2 - 6",
    "city": "2626AB DELFT",
    "url": "vitesse-delft",
    "logo": "",
    "tel": "",
    "tenue": "t_34.png"
  },
  {
    "code": "BBKV16H",
    "name": "WSV",
    "longitude": 5.988,
    "latitude": 52.2095,
    "street": "De Voorwaarts 450",
    "city": "7321MG APELDOORN",
    "url": "wsv",
    "logo": "",
    "tel": "",
    "tenue": "t_96.png"
  },
  {
    "code": "BBFX95F",
    "name": "EIJK (VAN)",
    "longitude": 4.70662,
    "latitude": 52.678,
    "street": "Molenweidtje 3",
    "city": "1862BC BERGEN NH",
    "url": "eijk-van",
    "logo": "",
    "tel": "",
    "tenue": ""
  },
  {
    "code": "LWNR89T",
    "name": "NAC BREDA BV",
    "longitude": 4.75088,
    "latitude": 51.5955,
    "street": "Stadionstraat 23",
    "city": "4815NC BREDA",
    "url": "nac-breda-bv",
    "logo": "",
    "tel": "",
    "tenue": "t_17.png"
  },
  {
    "code": "BBBN34K",
    "name": "MAMIO",
    "longitude": 6.54764,
    "latitude": 53.2308,
    "street": "Eikenlaan 292",
    "city": "9741EW GRONINGEN",
    "url": "mamio",
    "logo": "",
    "tel": "",
    "tenue": "t_48.png"
  },
  {
    "code": "BBKY03M",
    "name": "APELDOORNSE BOYS",
    "longitude": 5.96841,
    "latitude": 52.1846,
    "street": "Dubbelbeek 60",
    "city": "7333NJ APELDOORN",
    "url": "apeldoornse-boys",
    "logo": "",
    "tel": "",
    "tenue": "t_168.png"
  },
  {
    "code": "BBFB19L",
    "name": "VOORNE, SC",
    "longitude": 4.16693,
    "latitude": 51.9123,
    "street": "Van Almondeweg 29",
    "city": "3231CS BRIELLE",
    "url": "voorne-sc",
    "logo": "",
    "tel": "",
    "tenue": ""
  },
  {
    "code": "BBKX88G",
    "name": "AGOVV",
    "longitude": 5.93054,
    "latitude": 52.2093,
    "street": "Laan van Spitsbergen 2",
    "city": "7312CM APELDOORN",
    "url": "agovv",
    "logo": "",
    "tel": "",
    "tenue": "t_23.png"
  },
  {
    "code": "BBKV62S",
    "name": "DE ESCH",
    "longitude": 6.91718,
    "latitude": 52.3242,
    "street": "Operalaan 100",
    "city": "7577JA OLDENZAAL",
    "url": "de-esch",
    "logo": "",
    "tel": "",
    "tenue": "t_647.png"
  },
  {
    "code": "FNHT13V",
    "name": "TOB",
    "longitude": 5.40028,
    "latitude": 51.3993,
    "street": "Heerseweg 49",
    "city": "5504KP VELDHOVEN",
    "url": "tob",
    "logo": "",
    "tel": "",
    "tenue": ""
  },
  {
    "code": "BBHY042",
    "name": "CITO",
    "longitude": 5.54324,
    "latitude": 51.7593,
    "street": "Kloosterstraat 13",
    "city": "5349AB OSS",
    "url": "cito",
    "logo": "",
    "tel": "",
    "tenue": "t_108.png"
  },
  {
    "code": "BBFC859",
    "name": "CONTROLEC",
    "longitude": 4.71236,
    "latitude": 52.0271,
    "street": "Calslaan 101",
    "city": "2804RT GOUDA",
    "url": "controlec",
    "logo": "",
    "tel": "",
    "tenue": ""
  },
  {
    "code": "BBJC45P",
    "name": "SV VALKENSWAARD",
    "longitude": 5.45443,
    "latitude": 51.3644,
    "street": "Heerkensdreef 6",
    "city": "5552BG VALKENSWAARD",
    "url": "sv-valkenswaard",
    "logo": "",
    "tel": "",
    "tenue": "t_648.png"
  },
  {
    "code": "BBHX10A",
    "name": "KPJ/DONSKAFFEE",
    "longitude": 5.34703,
    "latitude": 51.3234,
    "street": "Hegmulder 2",
    "city": "5571RK BERGEIJK",
    "url": "kpjdonskaffee",
    "logo": "",
    "tel": "",
    "tenue": ""
  },
  {
    "code": "BBBC29Z",
    "name": "DWZ",
    "longitude": 6.91472,
    "latitude": 53.0959,
    "street": "Zuidwending 2 B",
    "city": "9644XK VEENDAM",
    "url": "dwz",
    "logo": "",
    "tel": "",
    "tenue": "t_744.png"
  },
  {
    "code": "BBJF515",
    "name": "WILHELMINA",
    "longitude": 5.31739,
    "latitude": 51.727,
    "street": "De Saren 12",
    "city": "5235AL 'S-HERTOGENBOSCH",
    "url": "wilhelmina",
    "logo": "",
    "tel": "",
    "tenue": "t_244.png"
  },
  {
    "code": "BBJC048",
    "name": "TIVOLI",
    "longitude": 5.49028,
    "latitude": 51.4098,
    "street": "Roostenlaan 305",
    "city": "5644BR EINDHOVEN",
    "url": "tivoli",
    "logo": "",
    "tel": "",
    "tenue": "t_245.png"
  },
  {
    "code": "BBFC39W",
    "name": "LEONIDAS",
    "longitude": 4.46755,
    "latitude": 51.9479,
    "street": "Erasmuspad 9",
    "city": "3052KP ROTTERDAM",
    "url": "leonidas",
    "logo": "",
    "tel": "",
    "tenue": "t_43.png"
  },
  {
    "code": "GKRJ70M",
    "name": "BMF ZAALVOETBAL",
    "longitude": 5.55782,
    "latitude": 51.4308,
    "street": "Linze 13",
    "city": "5667AH GELDROP",
    "url": "bmf-zaalvoetbal",
    "logo": "",
    "tel": "",
    "tenue": ""
  },
  {
    "code": "BBHZ83Y",
    "name": "WALCHEREN",
    "longitude": 3.56406,
    "latitude": 51.4578,
    "street": "Olympiaweg 1",
    "city": "4383BB VLISSINGEN",
    "url": "walcheren",
    "logo": "",
    "tel": "",
    "tenue": "t_24.png"
  },
  {
    "code": "BBCB67D",
    "name": "TAFELBERG",
    "longitude": 5.25912,
    "latitude": 52.2541,
    "street": "Hasselaarlaan 1C",
    "city": "3755AV EEMNES",
    "url": "tafelberg",
    "logo": "",
    "tel": "",
    "tenue": ""
  },
  {
    "code": "BBBD73F",
    "name": "HAREN",
    "longitude": 6.6178,
    "latitude": 53.1656,
    "street": "Onnerweg 47",
    "city": "9751VB HAREN GN",
    "url": "haren",
    "logo": "",
    "tel": "",
    "tenue": ""
  },
  {
    "code": "BBCZ75W",
    "name": "ELAN",
    "longitude": 4.87953,
    "latitude": 52.2902,
    "street": "Langs de Akker 3",
    "city": "1186DA AMSTELVEEN",
    "url": "elan",
    "logo": "",
    "tel": "",
    "tenue": ""
  },
  {
    "code": "BBJV47K",
    "name": "ORANJE BOYS",
    "longitude": 5.71741,
    "latitude": 50.7895,
    "street": "Hoogstraat 2",
    "city": "6245LV EIJSDEN",
    "url": "oranje-boys_1",
    "logo": "",
    "tel": "",
    "tenue": "t_25.png"
  },
  {
    "code": "BBJS729",
    "name": "LEONIDAS - W",
    "longitude": 5.65057,
    "latitude": 50.8333,
    "street": "Diependaalweg 1",
    "city": "6213HZ MAASTRICHT",
    "url": "leonidas-w",
    "logo": "",
    "tel": "",
    "tenue": "t_156.png"
  },
  {
    "code": "BBBZ135",
    "name": "GEINOORD NIEUWEGEIN",
    "longitude": 5.07995,
    "latitude": 52.0191,
    "street": "Parkhout 1",
    "city": "3432NE NIEUWEGEIN",
    "url": "geinoord-nieuwegein",
    "logo": "",
    "tel": "",
    "tenue": "t_81.png"
  },
  {
    "code": "BBBZ47I",
    "name": "SCHERPENZEEL",
    "longitude": 5.48685,
    "latitude": 52.0843,
    "street": "Eikenlaan 6",
    "city": "3925VK SCHERPENZEEL GLD",
    "url": "scherpenzeel",
    "logo": "",
    "tel": "",
    "tenue": ""
  },
  {
    "code": "BBGV45V",
    "name": "GRAAF W II VAC",
    "longitude": 4.34181,
    "latitude": 52.1135,
    "street": "Buurtweg 124",
    "city": "2244AJ WASSENAAR",
    "url": "graaf-w-ii-vac",
    "logo": "",
    "tel": "",
    "tenue": ""
  },
  {
    "code": "BBKW28R",
    "name": "RKSV",
    "longitude": 6.54901,
    "latitude": 52.2974,
    "street": "Elsmaten 1",
    "city": "7461PW RIJSSEN",
    "url": "rksv",
    "logo": "",
    "tel": "",
    "tenue": "t_708.png"
  },
  {
    "code": "LWNS34E",
    "name": "BV VITESSE",
    "longitude": 5.89304,
    "latitude": 51.9636,
    "street": "Batavierenweg 25",
    "city": "6841HN ARNHEM",
    "url": "bv-vitesse",
    "logo": "",
    "tel": "",
    "tenue": ""
  },
  {
    "code": "BBBD54A",
    "name": "SJS",
    "longitude": 6.95836,
    "latitude": 52.9779,
    "street": "Julianastraat 85",
    "city": "9503LD STADSKANAAL",
    "url": "sjs",
    "logo": "",
    "tel": "",
    "tenue": "t_23.png"
  },
  {
    "code": "BBCC78M",
    "name": "RODA 46",
    "longitude": 5.41216,
    "latitude": 52.1273,
    "street": "Bavoortseweg 2",
    "city": "3833BM LEUSDEN",
    "url": "roda-46",
    "logo": "",
    "tel": "",
    "tenue": "t_241.png"
  },
  {
    "code": "BBBF47K",
    "name": "FARMSUM",
    "longitude": 6.91261,
    "latitude": 53.3201,
    "street": "Zwet 36",
    "city": "9932AB DELFZIJL",
    "url": "farmsum",
    "logo": "",
    "tel": "",
    "tenue": ""
  },
  {
    "code": "BBHV32W",
    "name": "DZV/H VD BIGGELAAR EN ZN",
    "longitude": 5.32765,
    "latitude": 51.7006,
    "street": "Victorialaan 10",
    "city": "5213JE 'S-HERTOGENBOSCH",
    "url": "dzvh-vd-biggelaar-en-zn",
    "logo": "",
    "tel": "",
    "tenue": ""
  },
  {
    "code": "BBCY88X",
    "name": "VAN NISPEN, RKVV",
    "longitude": 4.54153,
    "latitude": 52.3042,
    "street": "Sportlaan 1",
    "city": "2191XH DE ZILK",
    "url": "van-nispen-rkvv",
    "logo": "",
    "tel": "",
    "tenue": "t_168.png"
  },
  {
    "code": "MDSQ36F",
    "name": "FOCUS 07",
    "longitude": 5.20353,
    "latitude": 51.9498,
    "street": "Prijsseweg 14 AA",
    "city": "4105LE CULEMBORG",
    "url": "focus-07",
    "logo": "",
    "tel": "",
    "tenue": "t_53.png"
  },
  {
    "code": "BBBD15X",
    "name": "GERMANICUS",
    "longitude": 6.74933,
    "latitude": 52.6605,
    "street": "Pampertstraat 2",
    "city": "7742BT COEVORDEN",
    "url": "germanicus",
    "logo": "",
    "tel": "",
    "tenue": "t_184.png"
  },
  {
    "code": "NKXT32F",
    "name": "SCSV OLYMPIC",
    "longitude": 5.0454,
    "latitude": 51.5177,
    "street": "De Schietberg 8",
    "city": "5051NZ GOIRLE",
    "url": "scsv-olympic",
    "logo": "",
    "tel": "",
    "tenue": ""
  },
  {
    "code": "BBKX84C",
    "name": "FC BERGHUIZEN",
    "longitude": 6.94112,
    "latitude": 52.3004,
    "street": "Schapendijk 37",
    "city": "7574PG OLDENZAAL",
    "url": "fc-berghuizen",
    "logo": "",
    "tel": "",
    "tenue": "t_22.png"
  },
  {
    "code": "FNHT23Y",
    "name": "VDC/MALLE PIETJE",
    "longitude": 5.40028,
    "latitude": 51.3993,
    "street": "Heerseweg 49",
    "city": "5504KP VELDHOVEN",
    "url": "vdcmalle-pietje",
    "logo": "",
    "tel": "",
    "tenue": ""
  },
  {
    "code": "BBCY30K",
    "name": "CTO 70 SV",
    "longitude": 4.9416,
    "latitude": 52.3271,
    "street": "Biesbosch 39",
    "city": "1115HE DUIVENDRECHT",
    "url": "cto-70-sv",
    "logo": "",
    "tel": "",
    "tenue": "t_25.png"
  },
  {
    "code": "BBGW98K",
    "name": "DOCOS",
    "longitude": 4.45716,
    "latitude": 52.1647,
    "street": "Haagse Schouwweg 6",
    "city": "2332KG LEIDEN",
    "url": "docos",
    "logo": "",
    "tel": "",
    "tenue": "t_41.png"
  },
  {
    "code": "BBJL07M",
    "name": "HEG BOYS/ETB KWANTEN BV",
    "longitude": 5.40028,
    "latitude": 51.3993,
    "street": "Heerseweg 49",
    "city": "5504KP VELDHOVEN",
    "url": "heg-boysetb-kwanten-bv",
    "logo": "",
    "tel": "",
    "tenue": ""
  },
  {
    "code": "BBCZ30P",
    "name": "VVA/SPARTAAN",
    "longitude": 4.83899,
    "latitude": 52.3736,
    "street": "Laan van Spartaan 1",
    "city": "1061MA AMSTERDAM",
    "url": "vvaspartaan",
    "logo": "",
    "tel": "",
    "tenue": "t_255.png"
  },
  {
    "code": "BBCD43D",
    "name": "VEBO 78",
    "longitude": 5.37612,
    "latitude": 52.2567,
    "street": "Westdijk 14",
    "city": "3752AE BUNSCHOTEN SPAKENBURG",
    "url": "vebo-78",
    "logo": "",
    "tel": "",
    "tenue": ""
  },
  {
    "code": "BBHW415",
    "name": "JONG AMBON",
    "longitude": 3.63237,
    "latitude": 51.4926,
    "street": "Kruitmolenlaan 123",
    "city": "4337KP MIDDELBURG",
    "url": "jong-ambon",
    "logo": "",
    "tel": "",
    "tenue": "t_21.png"
  },